codigo_estacion,institucion,fuente,nombre,altura,latitud,longitud,codigo_cuenca,nombre_cuenca,codigo_sub_cuenca,nombre_sub_cuenca,inicio_observaciones,fin_observaciones,cantidad_observaciones,inicio_automatica
1000005,DGA,dga_web,Visviri,4080,-17.595,-69.4831,10.0,Altiplanicas,100.0,Entre Limite Peru-Bolivia Y Rio Lauca,2014-01-01,2018-02-03,1481,2014-01-01
1201005,DGA,dga_web,Rio Caracarani En Humapalca,3908,-17.8428,-69.6994,12.0,Rio Lluta,120.0,Rio Lluta Alto,2013-08-01,2018-01-30,713,2016-09-01
1001005,DGA,dga_web,Caquena,4400,-18.0542,-69.2017,10.0,Altiplanicas,100.0,Entre Limite Peru-Bolivia Y Rio Lauca,1976-10-04,2013-01-19,9791,-
1202009,DGA,dga_web,Pacollo,4185,-18.1769,-69.5092,12.0,Rio Lluta,120.0,Rio Lluta Alto,1978-11-06,1999-05-31,7199,-
1202012,DGA,dga_web,Putre (Dcp),3560,-18.195,-69.5589,12.0,Rio Lluta,120.0,Rio Lluta Alto,2002-01-17,2018-02-03,2107,2016-09-01
1202010,DGA,dga_web,Putre,3545,-18.1992,-69.5603,12.0,Rio Lluta,120.0,Rio Lluta Alto,1976-01-20,2009-10-31,11661,-
1020017,DGA,dga_web,Parinacota Ex Endesa,4420,-18.2042,-69.2683,10.0,Altiplanicas,102.0,Rio Lauca,1986-06-30,2018-02-03,8212,2016-09-01
1020018,DGA,dga_web,Chucuyo (Ex. Endesa),4400,-18.2181,-69.3214,10.0,Altiplanicas,102.0,Rio Lauca,1985-01-01,1990-03-30,1366,-
1010010,DGA,dga_web,Chungara Ajata,4585,-18.2353,-69.1833,10.0,Altiplanicas,101.0,Lago Chungara,1986-01-01,2018-02-03,10921,2012-01-01
1300004,DGA,dga_web,Murmuntane,3550,-18.3519,-69.5519,13.0,Rio San Jose,130.0,Azapa Alto,1970-06-01,1987-12-31,3518,-
1211006,DGA,dga_web,Lluta,290,-18.4103,-70.1692,12.0,Rio Lluta,121.0,Rio Lluta Bajo,1968-12-17,1993-12-31,5244,-
1310018,DGA,dga_web,Arica Oficina,20,-18.4775,-70.3208,13.0,Rio San Jose,131.0,Rio San Jose,1974-09-21,1989-12-16,1958,-
1310021,DGA,dga_web,U. Del Norte,55,-18.4833,-70.2936,13.0,Rio San Jose,131.0,Rio San Jose,1975-05-02,1985-06-29,3177,-
1021002,DGA,dga_web,Rio Guallatire En Guallatire,4280,-18.4931,-69.1494,10.0,Altiplanicas,102.0,Rio Lauca,2016-09-01,2018-02-03,520,2016-09-01
1021007,DGA,dga_web,Guallatire,4240,-18.4983,-69.1547,10.0,Altiplanicas,102.0,Rio Lauca,1968-12-20,1971-09-30,722,-
1310022,DGA,dga_web,El Buitre Aerodromo,110,-18.5119,-70.2842,13.0,Rio San Jose,131.0,Rio San Jose,1985-08-27,2012-03-31,9661,-
1310019,DGA,dga_web,Azapa,365,-18.5156,-70.1806,13.0,Rio San Jose,131.0,Rio San Jose,1968-12-01,2016-12-31,16408,-
1310020,DGA,dga_web,La Rivera,310,-18.5283,-70.1642,13.0,Rio San Jose,131.0,Rio San Jose,1970-07-14,1973-11-30,1033,-
1030003,DGA,dga_web,Chilcaya,4270,-18.7939,-69.0844,10.0,Altiplanicas,103.0,Salar De Surire,1971-10-26,2014-01-31,7694,-
1410011,DGA,dga_web,Chaca,350,-18.8169,-70.15,14.0,Costeras R. San Jose-Q.Camarones,141.0,Quebrada Vitor,1968-12-18,1979-11-28,3724,-
1410012,DGA,dga_web,Codpa,1870,-18.8322,-69.7439,14.0,Costeras R. San Jose-Q.Camarones,141.0,Quebrada Vitor,1968-12-18,2016-07-31,16632,-
1502006,DGA,dga_web,Cuya,200,-19.1117,-70.1269,15.0,Q. Rio Camarones,150.0,Rio Camarones Antes Junta Quebrada De Chiza,1965-11-02,1979-03-31,2586,-
1610004,DGA,dga_web,Q. Camia 3 Km. A. Arriba De Tarcavire,3848,-19.1181,-69.2447,16.0,Costeras R.Camarones-Pampa Del Tamarugal,161.0,Quebrada De Camina,2013-06-27,2018-02-03,1574,2013-06-27
1041003,DGA,dga_web,Colchane (T. Isluga),3700,-19.2764,-68.6378,10.0,Altiplanicas,104.0,Entre Estero Sencata Y Rio Sacaya,2011-01-01,2018-02-03,2055,2011-01-01
1730018,DGA,dga_web,Lagunillas (Pampa Lirima),4020,-19.9333,-68.8369,17.0,Pampa Del Tamarugal,173.0,Quebrada De Tarapaca,1982-09-13,2015-09-30,10979,-
1050007,DGA,dga_web,Coyacagua,4013,-20.0531,-68.8075,10.0,Altiplanicas,105.0,Salar Del Huasco,1961-11-17,2013-09-30,16602,-
1740002,DGA,dga_web,Cerro Colorado,2510,-20.065,-69.2703,17.0,Pampa Del Tamarugal,174.0,Quebrada De Quipisca,1993-04-14,2015-08-31,7378,-
1700010,DGA,dga_web,Huara En Fuerte Baquedano,1100,-20.1308,-69.7497,17.0,Pampa Del Tamarugal,170.0,Pampa Del Tamarugal,1993-02-16,2013-06-30,5984,-
1051003,DGA,dga_web,Salar Huasco,3800,-20.2761,-68.8861,10.0,Altiplanicas,105.0,Salar Del Huasco,1981-08-04,1982-06-30,295,-
1700008,DGA,dga_web,Esmeralda,1115,-20.4842,-69.3814,17.0,Pampa Del Tamarugal,170.0,Pampa Del Tamarugal,1966-09-04,1973-11-22,983,-
1700009,DGA,dga_web,Coposa,3760,-20.7086,-68.6942,17.0,Pampa Del Tamarugal,170.0,Pampa Del Tamarugal,2015-05-01,2015-09-29,150,-
2113005,DGA,dga_web,Guatacondo Dga,2460,-20.9272,-69.0456,21.0,Rio Loa,211.0,Loa Medio (Entre R.  Salado Y Q. De Barrera),1978-01-01,1990-11-30,3501,-
1080001,DGA,dga_web,Ujina,4300,-20.9714,-68.6275,10.0,Altiplanicas,108.0,Salar De Michincha,1973-11-10,2015-09-29,2908,-
2000001,DGA,dga_web,Ollague,3700,-21.2233,-68.2494,20.0,Fronterizas Salar Michincha-R.Loa,200.0,Salar De Ollague,1973-11-08,2018-02-02,6834,2017-01-01
2020001,DGA,dga_web,Cebollar,3730,-21.5311,-68.3386,20.0,Fronterizas Salar Michincha-R.Loa,202.0,Salar De Ascotan,1969-11-11,1988-09-04,4603,-
2101003,DGA,dga_web,Lequena,3320,-21.6553,-68.6611,21.0,Rio Loa,210.0,Rio Loa Alto (Bajo Junta Rio Salado),1984-03-15,2013-09-18,6708,-
2112008,DGA,dga_web,Quillagua,802,-21.6603,-69.5358,21.0,Rio Loa,211.0,Loa Medio (Entre R.  Salado Y Q. De Barrera),1969-05-29,1979-06-30,2186,-
2020002,DGA,dga_web,Ascotan,3970,-21.7253,-68.2756,20.0,Fronterizas Salar Michincha-R.Loa,202.0,Salar De Ascotan,1974-08-03,1983-03-05,2479,-
2103008,DGA,dga_web,Parshall N 2,3318,-21.9428,-68.5175,21.0,Rio Loa,210.0,Rio Loa Alto (Bajo Junta Rio Salado),1969-01-21,2012-08-03,15089,-
2103009,DGA,dga_web,Ojos San Pedro,3800,-21.9706,-68.3128,21.0,Rio Loa,210.0,Rio Loa Alto (Bajo Junta Rio Salado),1969-03-25,1989-12-29,3707,-
2104008,DGA,dga_web,Conchi Embalse,3010,-22.025,-68.6242,21.0,Rio Loa,210.0,Rio Loa Alto (Bajo Junta Rio Salado),1967-09-11,2016-11-30,14655,-
2104009,DGA,dga_web,Conchi Muro Embalse,3000,-22.0267,-68.6208,21.0,Rio Loa,210.0,Rio Loa Alto (Bajo Junta Rio Salado),1980-12-04,1991-12-31,3806,-
2103010,DGA,dga_web,Inacaliri,4040,-22.0278,-68.0661,21.0,Rio Loa,210.0,Rio Loa Alto (Bajo Junta Rio Salado),1969-01-01,1992-10-16,7111,-
2104002,DGA,dga_web,Rio Loa En Salida Embalse Conchi,2950,-22.0278,-68.6208,21.0,Rio Loa,210.0,Rio Loa Alto (Bajo Junta Rio Salado),2012-03-01,2012-03-07,2,-
2210002,DGA,dga_web,Tocopilla,150,-22.0797,-70.1897,22.0,Costeras R.Loa-Q.Caracoles,221.0,Costeras Entre Q. Iquine Y Q.Tocopilla (Inclusive),2014-01-01,2018-01-01,815,2014-01-01
2105014,DGA,dga_web,Cupo,3370,-22.1147,-68.3167,21.0,Rio Loa,210.0,Rio Loa Alto (Bajo Junta Rio Salado),2012-01-26,2012-03-01,7,-
2105016,DGA,dga_web,Linzor,4100,-22.2297,-68.0228,21.0,Rio Loa,210.0,Rio Loa Alto (Bajo Junta Rio Salado),1973-11-22,2018-02-03,12903,2007-01-31
2105015,DGA,dga_web,Turi,3070,-22.2408,-68.2881,21.0,Rio Loa,210.0,Rio Loa Alto (Bajo Junta Rio Salado),1980-05-31,1993-05-30,4700,-
2105017,DGA,dga_web,Toconce,3310,-22.2592,-68.1733,21.0,Rio Loa,210.0,Rio Loa Alto (Bajo Junta Rio Salado),1993-09-01,2016-12-31,7681,-
2105018,DGA,dga_web,Ayquina,3031,-22.2753,-68.3183,21.0,Rio Loa,210.0,Rio Loa Alto (Bajo Junta Rio Salado),1993-06-01,2016-12-31,7773,-
2105001,DGA,dga_web,Rio Salado A. J. Curti,3080,-22.2792,-68.2428,21.0,Rio Loa,210.0,Rio Loa Alto (Bajo Junta Rio Salado),2012-03-01,2012-03-08,2,-
2105020,DGA,dga_web,Salado Embalse,3200,-22.2856,-68.2028,21.0,Rio Loa,210.0,Rio Loa Alto (Bajo Junta Rio Salado),2005-10-19,2018-02-03,3139,2005-10-19
2105021,DGA,dga_web,Caspana,3260,-22.3367,-68.2122,21.0,Rio Loa,210.0,Rio Loa Alto (Bajo Junta Rio Salado),1973-08-11,2008-02-29,11332,-
2104010,DGA,dga_web,Chiu-Chiu,2524,-22.3378,-68.6367,21.0,Rio Loa,210.0,Rio Loa Alto (Bajo Junta Rio Salado),1979-06-12,2016-12-31,13177,-
2105022,DGA,dga_web,El Tatio,4370,-22.3711,-68.0133,21.0,Rio Loa,210.0,Rio Loa Alto (Bajo Junta Rio Salado),1983-01-04,2018-02-03,9376,2006-01-01
2112009,DGA,dga_web,Coya Sur,1250,-22.3939,-69.6225,21.0,Rio Loa,211.0,Loa Medio (Entre R.  Salado Y Q. De Barrera),1973-11-19,1991-06-30,6263,-
2110013,DGA,dga_web,Calama,2300,-22.4494,-68.9044,21.0,Rio Loa,211.0,Loa Medio (Entre R.  Salado Y Q. De Barrera),1963-12-03,1994-12-23,9531,-
2700001,DGA,dga_web,Sierra Gorda,1616,-22.8892,-69.3219,27.0,Quebrada Caracoles,270.0,Quebrada Caracoles Bajo Junta Quebrada El Buitre,1994-09-06,2018-02-03,7957,2015-01-01
2510006,DGA,dga_web,San Pedro De Atacama,2450,-22.9053,-68.2003,25.0,Salar De Atacama,251.0,Rio San Pedro,1958-09-01,1989-03-30,8125,-
2500016,DGA,dga_web,Toconao Experimental,2500,-23.1889,-67.9978,25.0,Salar De Atacama,250.0,Salar De Atacama,1981-10-27,2009-02-28,6901,-
2710002,DGA,dga_web,Baquedano,1032,-23.3336,-69.8397,27.0,Quebrada Caracoles,271.0,Q. Caracoles Entre Quebrada El Buitre Y  Salar Del Carmen,1973-11-16,2018-02-03,5346,2014-01-01
2240000,DGA,dga_web,Liceo CientÍFico Humanista La Chimba,0,-23.5544,-70.3933,22.0,Costeras R.Loa-Q.Caracoles,224.0,Costeras Entre Qs. Chacaya Y Caracoles (Incl.),2014-01-01,2016-12-02,449,2014-01-01
2500019,DGA,dga_web,Socaire,3251,-23.5869,-67.8925,25.0,Salar De Atacama,250.0,Salar De Atacama,1974-08-08,1998-11-16,3455,-
2710003,DGA,dga_web,Antofagasta,50,-23.5975,-70.3867,27.0,Quebrada Caracoles,271.0,Q. Caracoles Entre Quebrada El Buitre Y  Salar Del Carmen,1978-05-30,1987-10-30,3272,-
2500020,DGA,dga_web,Peine,2460,-23.6842,-68.0581,25.0,Salar De Atacama,250.0,Salar De Atacama,1974-11-22,2016-12-31,13185,-
2660001,DGA,dga_web,Monturaqui,3430,-24.3414,-68.4353,26.0,Endorreicas Salar Atacama-Vertiente Pacifico,266.0,Pampa De Socompa,1974-11-14,1980-06-20,1936,-
2942001,DGA,dga_web,Aguas Verdes,1560,-25.4,-69.9633,29.0,Costeras Entre Q. La Negra Y Q. Pan De Azucar,294.0,Quebrada De Taltal,1987-09-15,2016-12-31,9405,-
2943002,DGA,dga_web,Tal-Tal (Dcp),0,-25.4033,-70.4797,29.0,Qs.Entre Q. La Negra Y Q. Pan De Azucar,294.0,Quebrada De Taltal,2014-01-01,2018-02-03,929,2014-01-01
3210001,DGA,dga_web,Las Vegas,2250,-26.6781,-69.6656,32.0,Rio Salado,321.0,Quebrada Del Chanaral,2016-10-05,2018-02-03,372,2016-10-05
3450004,DGA,dga_web,Copiapo,385,-27.3772,-70.3308,34.0,Rio Copiapo,345.0,R.  Copiapo Bajo,1984-04-01,2018-02-03,5392,2016-01-01
3430007,DGA,dga_web,Los Loros,940,-27.8317,-70.1119,34.0,Rio Copiapo,343.0,R.  Copiapo Medio,1988-07-09,2016-12-31,10064,-
3430006,DGA,dga_web,Lautaro Embalse,1110,-27.9783,-70.0033,34.0,Rio Copiapo,343.0,R.  Copiapo Medio,1969-06-22,2018-02-03,16744,2016-11-01
3414001,DGA,dga_web,Rio Pulido En Vertedero,1310,-28.0858,-69.9408,34.0,Rio Copiapo,341.0,Rio Pulido,2016-01-01,2018-02-03,664,2016-01-01
3701001,DGA,dga_web,Canto De Agua,330,-28.0992,-70.7811,37.0,Quebrada Carrizal Y Costeras Hasta R. Huasco,370.0,Quebradas Carrizal Y Carrizalillo,1986-03-01,2016-12-31,10210,-
3414002,DGA,dga_web,Iglesia Colorada,1550,-28.1572,-69.8808,34.0,Rio Copiapo,341.0,Rio Pulido,1993-02-12,2016-12-31,8506,-
3826003,DGA,dga_web,Huasco Bajo,50,-28.4725,-71.1931,38.0,Rio Huasco,382.0,Rio Huasco,1993-02-17,2011-02-27,6289,-
3825004,DGA,dga_web,Freirina,100,-28.5072,-71.0806,38.0,Rio Huasco,382.0,Rio Huasco,1987-05-01,1992-08-31,1694,-
3823004,DGA,dga_web,La Compaia (Vallenar),430,-28.5761,-70.8081,38.0,Rio Huasco,382.0,Rio Huasco,1993-02-01,2016-12-31,8686,-
3823002,DGA,dga_web,Vallenar Dmc,535,-28.5936,-70.7572,38.0,Rio Huasco,382.0,Rio Huasco,1977-07-01,1983-07-31,1982,-
3800000,DGA,dga_web,Portezuelo El Gaucho,4000,-28.6231,-70.045,38.0,Rio Huasco,380.0,Rio Transito,2000-01-01,2018-02-03,2949,2000-01-01
3820004,DGA,dga_web,Santa Juana,560,-28.6672,-70.6625,38.0,Rio Huasco,382.0,Rio Huasco,1965-01-21,2018-02-03,18117,2017-01-01
3820002,DGA,dga_web,Rio Huasco En Chepica,600,-28.6997,-70.55,38.0,Rio Huasco,382.0,Rio Huasco,2015-09-29,2016-01-01,5,2015-09-29
3806002,DGA,dga_web,El Transito,1100,-28.8731,-70.2822,38.0,Rio Huasco,380.0,Rio Transito,1993-01-20,2018-02-03,8640,2016-02-22
3815004,DGA,dga_web,San Felix,1150,-28.9311,-70.4614,38.0,Rio Huasco,381.0,Rio Del Carmen,1993-01-19,2016-12-31,8467,-
3802001,DGA,dga_web,Rio Conay En Las Lozas,0,-28.9456,-70.1011,38.0,Rio Huasco,380.0,Rio Transito,2016-10-19,2017-05-25,219,2016-10-19
3802006,DGA,dga_web,Conay En Albaricoque,1600,-28.9519,-70.1106,38.0,Rio Huasco,380.0,Rio Transito,1999-01-01,2016-12-31,6568,-
3802005,DGA,dga_web,Conay,1450,-28.975,-70.1533,38.0,Rio Huasco,380.0,Rio Transito,1965-01-21,1998-12-31,8133,-
3804005,DGA,dga_web,El Parral,1400,-28.9797,-70.1986,38.0,Rio Huasco,380.0,Rio Transito,1993-03-01,1998-06-26,1499,-
3814003,DGA,dga_web,Rio Carmen En El Corral,2000,-29.1094,-70.4139,38.0,Rio Huasco,381.0,Rio Del Carmen,2016-10-19,2018-02-03,456,2016-10-19
4120001,DGA,dga_web,El Trapiche,300,-29.3731,-71.1181,41.0,Rio Los Choros,412.0,Q. Los Choros Entre Q. Del Pelicano Y Desembocadura,1979-03-09,2016-12-31,13587,-
4335002,DGA,dga_web,La Serena (Escuela Agricola),15,-29.9061,-71.2556,43.0,Rio Elqui,433.0,R. Elqui Bajo,1972-07-01,1978-06-06,1589,-
4308001,DGA,dga_web,Rio Turbio En Varillar,890,-29.9458,-70.5328,43.0,Rio Elqui,430.0,Rio Turbio,2015-06-01,2018-02-03,416,2016-09-01
4302001,DGA,dga_web,Rio Toro Antes Junta Rio La Laguna,2165,-29.9711,-70.0928,43.0,Rio Elqui,430.0,Rio Turbio,2015-05-01,2018-02-03,603,2016-09-01
4302014,DGA,dga_web,Juntas,2150,-29.9769,-70.0944,43.0,Rio Elqui,430.0,Rio Turbio,1990-01-01,2013-12-22,8326,-
4308003,DGA,dga_web,Rivadavia,820,-29.9772,-70.5617,43.0,Rio Elqui,430.0,Rio Turbio,1972-06-13,2016-12-31,16170,-
4314002,DGA,dga_web,Rio Claro En Rivadavia,820,-29.9781,-70.5525,43.0,Rio Elqui,431.0,Rio Claro,2016-09-02,2018-02-03,520,2016-09-02
4323007,DGA,dga_web,Almendral,370,-29.9822,-70.9186,43.0,Rio Elqui,432.0,R. Elqui Medio,1973-04-11,1989-12-31,5754,-
4321001,DGA,dga_web,Puclaro Embalse,460,-29.9964,-70.8556,43.0,Rio Elqui,432.0,R. Elqui Medio,1963-11-01,1967-04-28,1265,-
4400002,DGA,dga_web,Pan De Azucar,100,-30.0022,-71.2592,44.0,Costeras Entre Elqui Y Limari,440.0,E.  El Culebron - Q. El Romeral (Incl.),1978-08-28,1993-09-30,4351,-
4311005,DGA,dga_web,La Ortiga,1560,-30.1939,-70.4819,43.0,Rio Elqui,431.0,Rio Claro,1979-01-29,2016-12-31,13849,-
4301005,DGA,dga_web,La Laguna Embalse,3160,-30.2033,-70.0422,43.0,Rio Elqui,430.0,Rio Turbio,1974-01-01,2016-12-31,15284,-
4502005,DGA,dga_web,Hurtado,1100,-30.2867,-70.6961,45.0,Rio Limari,450.0,Rio Hurtado,1979-02-26,2016-12-31,13291,-
4502004,DGA,dga_web,La Cortadera,920,-30.3503,-70.77,45.0,Rio Limari,450.0,Rio Hurtado,1967-06-24,1974-07-30,2310,-
4503001,DGA,dga_web,Rio Hurtado En Angostura De Pangue,485,-30.4386,-71.0022,45.0,Rio Limari,450.0,Rio Hurtado,2017-06-09,2018-01-01,51,2017-06-09
4506007,DGA,dga_web,Recoleta Embalse,350,-30.5069,-71.0997,45.0,Rio Limari,450.0,Rio Hurtado,1989-10-21,2016-12-31,9763,-
4551004,DGA,dga_web,Ovalle (Escuela Agricola),340,-30.5528,-71.1642,45.0,Rio Limari,455.0,Rio Limari,1977-08-24,1983-02-27,1963,-
4557001,DGA,dga_web,Salala,100,-30.6783,-71.53,45.0,Rio Limari,455.0,Rio Limari,1968-10-07,1977-07-30,2903,-
4540006,DGA,dga_web,Paloma Embalse,320,-30.6958,-71.0361,45.0,Rio Limari,454.0,Rio Grande Bajo (Entre Embalse Paloma Y Rio Hurtado),1964-05-01,2016-12-31,19130,-
4523004,DGA,dga_web,Puntilla San Juan,430,-30.7025,-70.9178,45.0,Rio Limari,452.0,R. Grande Medio (Arriba Junta R. Rapel Y R. Guatulame O Muro Emb. Paloma),1967-10-01,1979-02-16,4084,-
4523002,DGA,dga_web,Rio Grande En Puntilla San Juan,420,-30.7047,-70.9244,45.0,Rio Limari,452.0,Rio Grande Medio (Arriba Junta Rapel Y E Paloma),2017-01-01,2017-10-24,154,2017-01-01
4537003,DGA,dga_web,El Tome,420,-30.8178,-70.9706,45.0,Rio Limari,453.0,R. Guatulame (Muro Embalse Paloma),1968-02-01,1988-06-17,7386,-
4513004,DGA,dga_web,Caren,740,-30.8547,-70.7708,45.0,Rio Limari,451.0,Rio Grande Alto (Hasta Arriba Junta Rio Rapel),1967-06-12,2016-06-06,16810,-
4511004,DGA,dga_web,Cerro Vega Negra,3600,-30.9033,-70.5158,45.0,Rio Limari,451.0,Rio Grande Alto (Hasta Arriba Junta Rio Rapel),1999-02-26,2018-02-03,5544,1999-02-26
4535001,DGA,dga_web,Cogoti Embalse,740,-31.0078,-71.0856,45.0,Rio Limari,453.0,R. Guatulame (Muro Embalse Paloma),1965-01-14,2016-12-31,18844,-
4511003,DGA,dga_web,Las Ramadas,1380,-31.0181,-70.5858,45.0,Rio Limari,451.0,Rio Grande Alto (Hasta Arriba Junta Rio Rapel),1968-06-13,2016-09-30,16944,-
4531002,DGA,dga_web,Rio Cogoti Entrada Embalse Cogoti,670,-31.0325,-71.0403,45.0,Rio Limari,453.0,Rio Huatulame (Muro Embalse Paloma),2014-01-01,2018-02-03,1098,2014-01-01
4530001,DGA,dga_web,Rio Cogoti En Fraguita,1065,-31.1119,-70.885,45.0,Rio Limari,453.0,R. Guatulame (Muro Embalse Paloma),2014-01-01,2018-01-01,793,2014-01-01
4721001,DGA,dga_web,Rio Illapel En Las Burras,1079,-31.5069,-70.8125,47.0,Rio Choapa,472.0,Rio Illapel,2013-09-10,2014-05-20,253,2013-09-10
4722001,DGA,dga_web,Santa Virginia,980,-31.5503,-70.8353,47.0,Rio Choapa,472.0,Rio Illapel,1979-02-14,1989-03-29,3533,-
4723001,DGA,dga_web,Rio Illapel En Huintil,775,-31.5608,-70.9644,47.0,Rio Choapa,472.0,Rio Illapel,2015-03-01,2018-02-03,677,2016-09-01
4726003,DGA,dga_web,Illapel Dga,290,-31.645,-71.1908,47.0,Rio Choapa,472.0,Rio Illapel,1972-07-01,2016-12-31,15130,-
4710001,DGA,dga_web,La Tranquilla,1000,-31.9,-70.6706,47.0,Rio Choapa,471.0,Rio Choapa Medio (Entre Rios Cuncumen E Illapel),1962-01-01,2016-12-31,19629,-
4810003,DGA,dga_web,Caimanes,450,-31.9322,-71.1361,48.0,Costeras Entre R.Choapa Y R.Quilimari,481.0,Estero Pupio,1989-08-09,2007-02-28,5893,-
4700002,DGA,dga_web,El Soldado,3290,-32.0067,-70.3214,47.0,Rio Choapa,470.0,Rio Choapa Alto (Hasta Abajo Junta Rio Cuncumen),2000-01-01,2018-02-03,4121,2000-01-01
4902002,DGA,dga_web,Los Condores,190,-32.1086,-71.3125,49.0,Rio Quilimari,490.0,Rio Quilimari Hasta Muro Embalse Culimo,1977-07-25,2016-12-31,13783,-
5200006,DGA,dga_web,Alicahue,750,-32.3408,-70.7528,52.0,Rio Ligua,520.0,Rio Ligua Alto (Estero Alicahue),1968-02-17,2016-12-31,16389,-
5414001,DGA,dga_web,Rio Putaendo En Resguardo Los Patos,1218,-32.5017,-70.5811,54.0,Rio Aconcagua,541.0,Aconcagua Medio,2014-01-01,2018-02-03,797,2014-01-01
5404001,DGA,dga_web,Canal Colorado En Bocatoma,1391,-32.8347,-70.3533,54.0,Rio Aconcagua,540.0,Aconcagua Alto,2014-01-01,2018-02-03,1293,2014-01-01
5401007,DGA,dga_web,Portillo,3000,-32.8444,-70.1108,54.0,Rio Aconcagua,540.0,Rio Aconcagua Alto (Rio Colorado Y E. Riecillos),2003-01-01,2018-02-03,3521,2003-01-01
5410002,DGA,dga_web,Rio Aconcagua En Chacabuquito,950,-32.8503,-70.5094,54.0,Rio Aconcagua,541.0,Aconcagua Medio,2000-01-01,2018-02-03,4943,2000-01-01
5410006,DGA,dga_web,Vilcuya,1100,-32.8603,-70.4719,54.0,Rio Aconcagua,541.0,Aconcagua Medio,1964-12-01,2016-12-31,18101,-
5401003,DGA,dga_web,Rio Juncal En Juncal,1800,-32.8625,-70.1675,54.0,Rio Aconcagua,540.0,Aconcagua Alto,2014-01-01,2018-02-03,1230,2014-01-01
5426004,DGA,dga_web,Quillota,130,-32.8958,-71.2092,54.0,Rio Aconcagua,542.0,Aconcagua Bajo,1977-11-02,2016-12-31,13946,-
5403002,DGA,dga_web,Rio Aconcagua En Rio Blanco,1420,-32.9067,-70.3036,54.0,Rio Aconcagua,540.0,Aconcagua Alto,2014-01-01,2018-02-03,1215,2014-01-01
5427007,DGA,dga_web,Los Aromos,100,-32.9578,-71.345,54.0,Rio Aconcagua,542.0,Aconcagua Bajo,1981-06-02,2014-05-29,9241,-
5500003,DGA,dga_web,Las Salinas,20,-33.0019,-71.5467,55.0,Costeras Entre Aconcagua Y Maipo,550.0,E. Marga-Marga,2013-08-14,2018-02-03,1363,2013-08-14
5733008,DGA,dga_web,Rungue Embalse,700,-33.0194,-70.9081,57.0,Rio Maipo,573.0,Rio Mapocho Bajo,1965-01-05,2007-05-31,14797,-
5510001,DGA,dga_web,Rodelillo,110,-33.0503,-71.5833,55.0,Costeras Entre Aconcagua Y Maipo,551.0,Lago Penuelas,2014-01-01,2018-02-03,1199,2014-01-01
5732002,DGA,dga_web,Huechun Andina,590,-33.0758,-70.7686,57.0,Rio Maipo,573.0,Rio Mapocho Bajo,1994-01-17,2016-12-31,7387,-
5510005,DGA,dga_web,Cerro Colorado Armada De Chile,510,-33.0819,-71.6169,55.0,Costeras Entre Aconcagua Y Maipo,551.0,Lago Penuelas,2014-01-01,2018-02-03,1293,2014-01-01
5427006,DGA,dga_web,Lliu-Lliu Embalse,260,-33.0986,-71.2144,54.0,Rio Aconcagua,542.0,Aconcagua Bajo,1979-03-14,2016-12-31,13453,-
5510002,DGA,dga_web,Lago Peuelas,360,-33.145,-71.5553,55.0,Costeras Entre Aconcagua Y Maipo,551.0,Lago Penuelas,1974-04-01,2016-12-31,15323,-
5706003,DGA,dga_web,Valle Olivares,2787,-33.1869,-70.1122,57.0,Rio Maipo,570.0,Rio Maipo Alto,2014-01-01,2018-02-03,1358,2014-01-01
5721017,DGA,dga_web,Estero Yerba Loca En Piedra Carvajal,3250,-33.2214,-70.2736,57.0,Rio Maipo,572.0,Rio Mapocho Alto,2011-01-01,2018-02-03,2215,2011-01-01
5721016,DGA,dga_web,Rio San Francisco Antes Junta Estero Yerba Loca,1550,-33.3086,-70.3572,57.0,Rio Maipo,572.0,Rio Mapocho Alto,2011-01-01,2018-02-03,2085,2011-01-01
5722001,DGA,dga_web,Estero Arrayan En La Montosa,880,-33.3256,-70.4561,57.0,Rio Maipo,572.0,Rio Mapocho Alto,2013-08-05,2018-02-03,1607,2013-08-05
5721001,DGA,dga_web,Estero Yerba Loca Antes Junta San Francisco,1350,-33.3414,-70.3636,57.0,Rio Maipo,572.0,Rio Mapocho Alto,2013-10-21,2018-02-03,1567,2013-10-21
5720003,DGA,dga_web,La Ermita Central En Bocatoma,1350,-33.3414,-70.3636,57.0,Rio Maipo,572.0,Rio Mapocho Alto,1991-10-01,2001-12-27,2965,-
5722002,DGA,dga_web,Rio Mapocho En Los Almendros,966,-33.3703,-70.4508,57.0,Rio Maipo,572.0,Rio Mapocho Alto,1999-08-02,2016-04-30,4547,1999-08-02
5730012,DGA,dga_web,Cerro Calan,848,-33.395,-70.5367,57.0,Rio Maipo,573.0,Rio Mapocho Bajo,1976-06-18,2018-02-03,15177,2000-06-22
5744002,DGA,dga_web,Los Panguiles,190,-33.4386,-71.0256,57.0,Rio Maipo,574.0,Rio Maipo Bajo (Entre Rio Mapocho Y Desembocadura),1980-11-04,2016-12-31,12985,-
5730016,DGA,dga_web,Terraza Oficinas Centrales Dga,560,-33.4486,-70.6444,57.0,Rio Maipo,573.0,Rio Mapocho Bajo,2011-01-01,2018-02-03,2194,2011-01-01
5706001,DGA,dga_web,Rio Olivares Antes Junta Rio Colorado,1500,-33.4878,-70.1367,57.0,Rio Maipo,570.0,Rio Maipo Alto,2016-11-01,2018-02-03,458,2016-11-01
5705001,DGA,dga_web,Rio Colorado Antes Junta Rio Olivares,1500,-33.49,-70.1342,57.0,Rio Maipo,570.0,Rio Maipo Alto,2016-11-13,2018-01-01,326,2016-11-13
5737002,DGA,dga_web,Rio Mapocho Rinconada De Maipu,440,-33.4961,-70.8167,57.0,Rio Maipo,573.0,Rio Mapocho Bajo,2013-08-09,2017-05-13,1237,2013-08-09
5730015,DGA,dga_web,Campus San Joaquin U.C.,570,-33.4975,-70.6142,57.0,Rio Maipo,573.0,Rio Mapocho Bajo,1977-03-07,1982-05-31,1510,-
5730039,DGA,dga_web,Quebrada De Macul,950,-33.5017,-70.5144,57.0,Rio Maipo,573.0,Rio Mapocho Bajo,2003-05-06,2018-02-03,3143,2003-05-06
5703011,DGA,dga_web,Glaciar Echaurren,3850,-33.5722,-70.1283,57.0,Rio Maipo,570.0,Rio Maipo Alto (Hasta Despues Junta Rio Colorado),1999-03-04,2002-08-18,1089,-
5710001,DGA,dga_web,Rio Maipo En El Manzano,850,-33.5939,-70.3792,57.0,Rio Maipo,571.0,Rio Maipo Medio,2011-01-01,2018-02-03,2189,2011-01-01
5703009,DGA,dga_web,Laguna Negra,2780,-33.6658,-70.1078,57.0,Rio Maipo,570.0,Rio Maipo Alto (Hasta Despues Junta Rio Colorado),2000-01-01,2018-02-03,3843,2000-01-01
5711003,DGA,dga_web,Pirque,659,-33.6736,-70.5869,57.0,Rio Maipo,571.0,Rio Maipo Medio,1967-10-10,2016-12-31,14773,-
5703008,DGA,dga_web,El Yeso Embalse,2475,-33.6767,-70.0886,57.0,Rio Maipo,570.0,Rio Maipo Alto,1962-04-13,2016-12-31,17264,-
5740005,DGA,dga_web,Melipilla,168,-33.6803,-71.1997,57.0,Rio Maipo,574.0,Rio Maipo Bajo (Entre Rio Mapocho Y Desembocadura),1971-06-03,2013-09-06,12587,-
5702011,DGA,dga_web,Glaciar San Franciscoen Aguas Panimavida,2220,-33.8053,-70.07,57.0,Rio Maipo,570.0,Rio Maipo Alto,2011-01-01,2018-02-03,1989,2011-01-01
5702001,DGA,dga_web,Rio Volcan En Queltehues,1365,-33.8056,-70.2089,57.0,Rio Maipo,570.0,Rio Maipo Alto,2016-11-01,2018-02-03,460,2016-11-01
5701008,DGA,dga_web,Queltehues,1450,-33.8164,-70.2172,57.0,Rio Maipo,570.0,Rio Maipo Alto,1976-12-11,1978-12-31,740,-
5716005,DGA,dga_web,Laguna Aculeo,360,-33.8858,-70.8775,57.0,Rio Maipo,571.0,Rio Maipo Medio,1988-12-07,2016-12-31,8806,-
5701005,DGA,dga_web,Las Melosas,1527,-33.8994,-70.1981,57.0,Rio Maipo,570.0,Rio Maipo Alto,1968-03-10,1984-05-30,5858,-
6011003,DGA,dga_web,Graneros,500,-34.0556,-70.7083,60.0,Rio Rapel,601.0,Cachapoal Bajo,1979-04-01,1998-06-30,6947,-
6011001,DGA,dga_web,Estero De La Cadena Antes Junta Rio Cachapoal,440,-34.1842,-70.8436,60.0,Rio Rapel,600.0,Rio Cachapoal Bajo (Bajo Jta Rio Claro Y E Rapel),2017-01-01,2018-02-03,394,2017-01-01
6003001,DGA,dga_web,Rio Cachapoal 5 Km. Aguas Abajo Junta Cortaderal,1127,-34.3464,-70.3764,60.0,Rio Rapel,600.0,Rio Cachapoal Alto (Hasta Bajo Junta Rio Claro),2011-01-01,2016-06-29,942,2011-01-01
6000003,DGA,dga_web,Rio Las Leas Ante Junta Rio Cachapoal,1296,-34.3628,-70.3056,60.0,Rio Rapel,600.0,Rio Cachapoal Alto (Hasta Bajo Junta Rio Claro),2015-01-04,2018-02-03,948,2015-01-04
6000004,DGA,dga_web,Laguna El Yeso,2140,-34.4078,-70.21,60.0,Rio Rapel,600.0,Rio Cachapoal Alto (Hasta Bajo Junta Rio Claro),2016-12-01,2018-01-20,287,2016-12-01
6015003,DGA,dga_web,Rengo,310,-34.4217,-70.8667,60.0,Rio Rapel,601.0,Cachapoal Bajo,1970-01-21,2010-11-15,14119,-
6013005,DGA,dga_web,Popeta,480,-34.4369,-70.7794,60.0,Rio Rapel,601.0,Cachapoal Bajo,1970-03-03,1975-05-31,1883,-
6013001,DGA,dga_web,Rio Claro En Hacienda Las Nieves,720,-34.4922,-70.7028,60.0,Rio Rapel,601.0,Cachapoal Bajo,2013-07-08,2018-02-03,1672,2013-07-08
6013008,DGA,dga_web,Laguna Los Cristales,2343,-34.5606,-70.5097,60.0,Rio Rapel,601.0,Cachapoal Bajo,2013-03-28,2018-01-01,1332,2013-03-28
6028001,DGA,dga_web,Rio Tinguiririca Bajo Los Briones,560,-34.7186,-70.8267,60.0,Rio Rapel,602.0,Rio Tinguiririca Alto (Hasta Bajo Junta Rio Claro),2013-12-16,2018-02-03,1465,2013-12-16
7120002,DGA,dga_web,Laguna De Torca,28,-34.7675,-72.065,71.0,Rio Mataquito,712.0,Rio Mataquito,2014-01-01,2018-02-03,1327,2014-01-01
6034003,DGA,dga_web,Convento Viejo,239,-34.7694,-71.1331,60.0,Rio Rapel,603.0,Tinguiririca Bajo,1971-08-24,2017-02-22,15005,2017-02-22
6020001,DGA,dga_web,Termas Del Flaco,2650,-34.8911,-70.3297,60.0,Rio Rapel,602.0,Rio Tinguiririca Alto (Hasta Bajo Junta Rio Claro),1999-06-23,2018-02-03,1737,2017-01-01
7118003,DGA,dga_web,Curico,195,-34.9811,-71.2361,71.0,Rio Mataquito,711.0,Rio Lontue,2014-01-01,2018-02-03,1143,2014-01-01
7116005,DGA,dga_web,Potrero Grande,445,-35.1833,-71.0978,71.0,Rio Mataquito,711.0,Rio Lontue,1967-04-16,2018-02-03,16905,2015-09-24
7384002,DGA,dga_web,Constitucion,10,-35.3242,-72.4089,73.0,Rio Maule,738.0,Rio Maule Bajo,2013-12-20,2018-02-03,1440,2013-12-20
7381003,DGA,dga_web,Pencahue,55,-35.3725,-71.8325,73.0,Rio Maule,738.0,Rio Maule Bajo,1986-06-01,2018-02-03,11366,2015-09-08
7381002,DGA,dga_web,Fundo El Peral,110,-35.4006,-71.7833,73.0,Rio Maule,738.0,Rio Maule Bajo,1974-11-13,1986-06-29,4129,-
7378004,DGA,dga_web,Talca,110,-35.4194,-71.6606,73.0,Rio Maule,737.0,Rio Claro,2013-11-22,2016-01-01,224,2013-11-22
7378002,DGA,dga_web,Talca U.C.,130,-35.4358,-71.6197,73.0,Rio Maule,737.0,Rio Claro,1982-03-01,2018-02-03,12726,2014-01-01
7379002,DGA,dga_web,Rio Claro En Rauquen,64,-35.4525,-71.7333,73.0,Rio Maule,737.0,Rio Claro,1999-02-16,2018-02-03,5378,1999-02-16
7378003,DGA,dga_web,Colorado,420,-35.6381,-71.2606,73.0,Rio Maule,737.0,Rio Claro,1969-09-15,2016-04-30,16040,-
7320003,DGA,dga_web,Rio Claro En San Carlos,550,-35.6989,-71.0683,73.0,Rio Maule,736.0,Rio Maule Medio (Entre Rio Claro Y Rio Loncomilla),2014-01-01,2018-02-03,972,2014-01-01
7320002,DGA,dga_web,Armerillo,492,-35.7011,-71.0772,73.0,Rio Maule,732.0,Rio Maule Medio,2011-01-01,2018-02-03,2224,2011-01-01
7321002,DGA,dga_web,Rio Maule En Armerillo,470,-35.7061,-71.1139,73.0,Rio Maule,732.0,Rio Maule Medio,2000-01-01,2018-02-03,4021,2000-01-01
7306001,DGA,dga_web,Rio Cipreses En Dasague Laguna La Invernada,1300,-35.7381,-70.7778,73.0,Rio Maule,730.0,Rio Maule Alto (Hasta Antes Junta Rio Melado),2014-01-01,2018-01-23,938,2014-01-01
7303000,DGA,dga_web,Rio Maule En Los BaÑOs,980,-35.8197,-70.7606,73.0,Rio Maule,730.0,Rio Maule Alto (Hasta Antes Junta Rio Melado),2014-01-01,2018-02-03,963,2014-01-01
7358007,DGA,dga_web,Linares,157,-35.8381,-71.5953,73.0,Rio Maule,735.0,Rio Loncomilla,1976-07-28,1984-02-28,2393,-
7317001,DGA,dga_web,Rio Melado En La Lancha Dga,650,-35.85,-71.0667,73.0,Rio Maule,731.0,Rio Melado,2002-09-28,2003-03-17,168,-
7317005,DGA,dga_web,Rio Melado En El Salto,730,-35.8842,-71.0192,73.0,Rio Maule,731.0,Rio Melado,2003-01-01,2018-02-03,3814,2003-01-01
7355007,DGA,dga_web,Ancoa Embalse,421,-35.9106,-71.2958,73.0,Rio Maule,735.0,Rio Loncomilla,1965-02-02,2013-06-27,17228,-
7301000,DGA,dga_web,Lo Aguirre,2000,-35.9697,-70.5719,73.0,Rio Maule,730.0,Rio Maule Alto,2000-01-04,2015-05-01,1969,-
7301001,DGA,dga_web,Los Condores,2172,-36.0106,-70.5589,73.0,Rio Maule,730.0,Rio Maule Alto,2014-01-01,2018-01-31,1181,2014-01-01
7345001,DGA,dga_web,Parral,175,-36.1878,-71.8283,73.0,Rio Maule,734.0,Perquilauquen Bajo,1975-10-14,2018-02-03,15241,2014-03-01
7331002,DGA,dga_web,Digua Embalse,390,-36.2558,-71.5481,73.0,Rio Maule,733.0,Perquilauquen Alto,1974-06-03,2018-02-03,15814,2014-02-01
7314002,DGA,dga_web,Guayquivilo,1200,-36.2933,-70.9181,73.0,Rio Maule,731.0,Rio Melado,1965-04-26,1972-07-02,2152,-
8113001,DGA,dga_web,Coihueco Embalse,314,-36.6408,-71.7989,81.0,Rio Itata,811.0,Nuble Bajo,1900-01-01,2012-10-22,13184,-
8105004,DGA,dga_web,Caracol,610,-36.6511,-71.395,81.0,Rio Itata,810.0,Nuble Alto,1900-01-01,2012-11-30,9226,-
8105003,DGA,dga_web,La Punilla,840,-36.6583,-71.3278,81.0,Rio Itata,810.0,Nuble Alto,1965-02-16,1986-10-14,7166,-
8130006,DGA,dga_web,Diguillin,670,-36.8686,-71.6425,81.0,Rio Itata,813.0,Itata Medio,1900-01-01,2016-12-31,18723,-
8372002,DGA,dga_web,Rio Polcura En Cuatro Junta,1319,-37.1072,-71.2422,83.0,Rio Bio-Bio,837.0,Rio Laja Alto (Hasta Bajo Junta Rio Rucue),2014-01-01,2018-02-03,880,2014-01-01
8372001,DGA,dga_web,Alto Mallines,1770,-37.1589,-71.2425,83.0,Rio Bio-Bio,837.0,Rio Laja Alto (Hasta Bajo Junta Rio Rucue),2002-01-01,2018-02-03,3938,2002-01-01
8318002,DGA,dga_web,Quilaco,231,-37.685,-72.0058,83.0,Rio Bio-Bio,831.0,Rio Bio-Bio Entre Rio Ranquil Y Rio Duqueco,1900-01-01,2014-04-07,17689,-
8316002,DGA,dga_web,Rio Huequecura Aguas Arriba De Embalse Angostura,330,-37.7047,-71.7683,83.0,Rio Bio-Bio,831.0,Rio Bio-Bio Entre Rio Ranquil Y Rio Duqueco,2013-12-23,2018-02-03,1437,2013-12-23
8317006,DGA,dga_web,Embalse Central Angostura,324,-37.7131,-71.8172,83.0,Rio Bio-Bio,831.0,Rio Bio-Bio Entre Rio Ranquil Y Rio Duqueco,2013-12-23,2018-02-03,1504,2013-12-23
8358002,DGA,dga_web,Angol (La Mona),113,-37.7794,-72.6372,83.0,Rio Bio-Bio,835.0,Rios Malleco Y Vergara,1993-05-01,2018-02-03,6725,2013-10-25
8317004,DGA,dga_web,Rio Biobio En La Culebra,338,-37.7964,-71.6989,83.0,Rio Bio-Bio,831.0,Rio Bio-Bio Entre Rio Ranquil Y Rio Duqueco,2013-12-23,2018-02-03,1468,2013-12-23
8358003,DGA,dga_web,El Vergel (Angol),75,-37.8172,-72.65,83.0,Rio Bio-Bio,835.0,Rios Malleco Y Vergara,1981-04-01,1996-02-29,5302,-
8358005,DGA,dga_web,Parque Nahuelbuta,1177,-37.8233,-72.9606,83.0,Rio Bio-Bio,835.0,Rios Malleco Y Vergara,2002-11-08,2016-12-31,4633,-
8313002,DGA,dga_web,Embalse Pangue,512,-37.9183,-71.5961,83.0,Rio Bio-Bio,831.0,Rio Bio-Bio Entre Rio Ranquil Y Rio Duqueco,2014-01-01,2017-10-15,1253,2014-01-01
8351003,DGA,dga_web,Collipulli,240,-37.9583,-72.4256,83.0,Rio Bio-Bio,835.0,Rios Malleco Y Vergara,1967-11-21,1974-08-31,2422,-
8822008,DGA,dga_web,Contulmo,41,-38.0186,-73.23,88.0,Costeras Lebu-Paicavi,882.0,Rio Paicavi,1900-01-01,2014-02-28,8482,-
8353001,DGA,dga_web,Ercilla (Vida Nueva),262,-38.0442,-72.4611,83.0,Rio Bio-Bio,835.0,Rios Malleco Y Vergara,1998-05-10,2016-12-31,6713,-
8312002,DGA,dga_web,Embalse Ralco,742,-38.0583,-71.4344,83.0,Rio Bio-Bio,831.0,Rio Bio-Bio Entre Rio Ranquil Y Rio Duqueco,2015-01-01,2018-02-03,1078,2015-01-01
8308000,DGA,dga_web,Rio Lomin En Puente La Junta,755,-38.0661,-71.3497,83.0,Rio Bio-Bio,830.0,Rio Bio-Bio Alto (Hasta Despues Junta Rio Lamin),2013-06-04,2017-03-01,792,2013-06-04
8307002,DGA,dga_web,Rio Bio-Bio En Llanquen,767,-38.2008,-71.2989,83.0,Rio Bio-Bio,830.0,Rio Bio-Bio Alto (Hasta Despues Junta Rio Lamin),2003-01-01,2018-02-03,3573,2003-01-01
8350002,DGA,dga_web,Laguna Malleco,894,-38.2156,-71.8106,83.0,Rio Bio-Bio,835.0,Rios Malleco Y Vergara,1989-07-11,2016-12-31,8944,-
9105002,DGA,dga_web,Traiguen,234,-38.2561,-72.6536,91.0,Rio Imperial,910.0,Rio Lumaco,1979-07-01,2015-06-30,12815,-
8304004,DGA,dga_web,Lonquimay,931,-38.4536,-71.3742,83.0,Rio Bio-Bio,830.0,Rio Bio-Bio Alto (Hasta Despues Junta Rio Lamin),1991-11-01,2018-02-03,9192,2016-11-03
9120002,DGA,dga_web,Manzanar,790,-38.4631,-71.6992,91.0,Rio Imperial,912.0,Cautin Alto (Hasta Antes Junta R. Quepe),1972-02-29,1988-11-30,5375,-
9120003,DGA,dga_web,Malalcahuello,950,-38.4703,-71.5753,91.0,Rio Imperial,912.0,Cautin Alto (Hasta Antes Junta R. Quepe),1988-11-01,2018-02-03,10174,2016-12-01
9124001,DGA,dga_web,Lautaro,200,-38.5186,-72.4522,91.0,Rio Imperial,912.0,Cautin Alto (Hasta Antes Junta R. Quepe),1995-08-01,2005-05-31,3454,-
8301001,DGA,dga_web,Liucura,1043,-38.6517,-71.0919,83.0,Rio Bio-Bio,830.0,Rio Bio-Bio Alto (Hasta Despues Junta Rio Lamin),1987-05-01,2015-03-31,9503,-
9130001,DGA,dga_web,Cherquenco,500,-38.6839,-72.0,91.0,Rio Imperial,913.0,Rio Quepe,2011-05-01,2016-12-31,1983,-
9129005,DGA,dga_web,Pueblo Nuevo (Temuco),119,-38.7128,-72.5558,91.0,Rio Imperial,912.0,Cautin Alto (Hasta Antes Junta R. Quepe),2005-12-01,2018-02-03,2341,2013-10-09
9129006,DGA,dga_web,Temuco Centro,122,-38.7425,-72.59,91.0,Rio Imperial,912.0,Cautin Alto (Hasta Antes Junta R. Quepe),2009-11-17,2011-01-26,428,-
9153001,DGA,dga_web,Puerto Saavedra,5,-38.7886,-73.3936,91.0,Rio Imperial,915.0,Rio Imperial,1979-07-01,2015-06-30,12240,-
9400000,DGA,dga_web,Rio Truful En Camino Internacional,520,-38.8444,-71.6536,94.0,Rio Tolten,940.0,Rio Allipen,2015-01-01,2018-02-03,1063,2015-01-01
9401001,DGA,dga_web,Tricauco,520,-38.8506,-71.55,94.0,Rio Tolten,940.0,Rio Allipen,1989-05-09,2016-11-30,9269,-
9403001,DGA,dga_web,Cunco,380,-38.9269,-72.0125,94.0,Rio Tolten,940.0,Rio Allipen,1986-05-01,1989-03-31,1065,-
9135003,DGA,dga_web,Freire Sendos,100,-38.9592,-72.6083,91.0,Rio Imperial,913.0,Rio Quepe,1984-06-27,1987-04-20,1024,-
9438001,DGA,dga_web,Teodoro Schmitd,13,-39.0278,-73.0781,94.0,Rio Tolten,943.0,Tolten Bajo,1989-04-01,2016-12-31,9743,-
9423001,DGA,dga_web,Rio Tolten En Coipue,200,-39.1,-72.3833,94.0,Rio Tolten,942.0,Lago Villarica Y Rio Tolten Alto (Antes  Allipen),2015-06-01,2018-02-03,423,2016-11-01
9417002,DGA,dga_web,Ojos Del Caburgua,300,-39.2367,-71.8356,94.0,Rio Tolten,941.0,Rio Pucon,1998-05-14,2001-10-31,1097,-
9420002,DGA,dga_web,Pucon,230,-39.2753,-71.9503,94.0,Rio Tolten,942.0,Lago Villarica Y Tolten Alto,1986-04-01,2018-02-03,10337,2013-10-30
9412002,DGA,dga_web,Curarrehue,420,-39.3581,-71.5744,94.0,Rio Tolten,941.0,Rio Pucon,1997-06-01,1997-06-30,30,-
9412003,DGA,dga_web,Puesco (Aduana),620,-39.5192,-71.5478,94.0,Rio Tolten,941.0,Rio Pucon,1987-09-03,2016-12-31,9549,-
10123006,DGA,dga_web,Valdivia (U. Austral),10,-39.8103,-73.2517,101.0,Rio Valdivia,1012.0,Rio Calle Calle,2000-01-01,2014-06-30,4584,-
10123004,DGA,dga_web,Llancahue,70,-39.8561,-73.1786,101.0,Rio Valdivia,1012.0,Rio Calle Calle,2014-01-01,2018-02-03,1278,2014-01-01
10100002,DGA,dga_web,Rio Fui En Desage Lago Pirihueico,600,-39.8747,-71.8897,101.0,Rio Valdivia,1010.0,Rio Valdivia Alto (Hasta Desague Lago Panguipulli),2003-04-12,2014-01-31,779,-
10307001,DGA,dga_web,Lago Ranco,100,-40.3172,-72.4692,103.0,Rio Bueno,1030.0,Afluentes Lago Ranco,2000-02-11,2016-03-31,5561,-
10360002,DGA,dga_web,Adolfo Matthei,55,-40.5883,-73.1069,103.0,Rio Bueno,1036.0,R. Rahue Bajo,1983-01-01,2018-02-03,12734,2015-09-01
10344003,DGA,dga_web,Rio Rahue Antes Junta Rio Negro,40,-40.63,-73.1783,103.0,Rio Bueno,1034.0,Rio Rahue Hasta Antes Junta Rio Negro,2014-01-01,2018-02-03,1227,2014-01-01
10322002,DGA,dga_web,Anticura,350,-40.6553,-72.1844,103.0,Rio Bueno,1032.0,Rio Pilmaiquen,2012-12-02,2016-12-31,1253,-
10355003,DGA,dga_web,Rio Forrahue En Rio Negro,52,-40.7956,-73.2144,103.0,Rio Bueno,1035.0,Rio Negro,2014-01-01,2018-02-03,1223,2014-01-01
10410005,DGA,dga_web,La Ensenada,62,-41.2269,-72.5681,104.0,Cuencas E Islas Entre R.Bueno Y R. Puelo,1041.0,Rio Maullin,1997-07-02,2006-03-01,3114,-
10512000,DGA,dga_web,Llanada Grande,248,-41.4242,-71.9386,105.0,Rio Puelo,1051.0,R. Puelo Alto,2014-01-01,2018-02-03,1348,2014-01-01
10425001,DGA,dga_web,Puerto Montt,90,-41.46,-72.9378,104.0,Cuencas E Islas Entre R.Bueno Y R. Puelo,1042.0,Costeras E Islas Entre Rio Maullin Y Rio Chamiza,2013-12-13,2018-02-03,1358,2013-12-13
10432004,DGA,dga_web,Pelluco (U. Austral),25,-41.4911,-72.8958,104.0,Cuencas E Islas Entre R.Bueno Y R. Puelo,1043.0,Rio Chamiza,2002-09-02,2006-11-30,989,-
10523001,DGA,dga_web,Puelo,5,-41.6511,-72.3117,105.0,Rio Puelo,1052.0,R. Puelo Bajo,2014-01-01,2018-02-03,1418,2014-01-01
10610001,DGA,dga_web,Hornopiren,25,-41.9383,-72.435,106.0,Costeras Entre R.Puelo Y R.Yelcho,1061.0,Costeras Entre Pta Tentelhue Y Rio Negro (Incl.),2016-01-01,2018-02-03,597,2016-01-01
10901002,DGA,dga_web,Castro 1 (Dga),50,-42.4581,-73.7744,109.0,Islas Chiloe Y Circundantes,1090.0,Isla Chiloe,1999-05-01,2007-10-29,2039,-
10901003,DGA,dga_web,Chonchi,30,-42.6228,-73.7728,109.0,Islas Chiloe Y Circundantes,1090.0,Isla Chiloe,2011-11-01,2013-07-31,559,-
10683002,DGA,dga_web,Rio Blanco En Chaiten,10,-42.9183,-72.7039,106.0,Costeras Entre R.Puelo Y R.Yelcho,1068.0,Costeras Entre R. Negro (Incl.) Y R. Yelcho,2014-01-01,2016-01-01,218,2014-01-01
11023002,DGA,dga_web,Villa Santa Lucia,327,-43.4128,-72.3658,110.0,Rio Palena Y Costeras Limite Decima Region,1102.0,Rio Palena Entre Frontera Y Rio Rosselot,2014-01-01,2018-02-03,1111,2014-01-01
11043001,DGA,dga_web,Marin Balmaceda,10,-43.7717,-72.9547,110.0,Rio Palena Y Costeras Limite Decima Region,1104.0,R. Palena Bajo,1993-08-01,1998-01-31,1481,-
11041001,DGA,dga_web,La Junta,45,-43.9708,-72.4056,110.0,Rio Palena Y Costeras Limite Decima Region,1104.0,R. Palena Bajo,2001-07-16,2018-02-03,4403,2014-01-01
11031001,DGA,dga_web,Lago Verde,350,-44.2394,-71.8461,110.0,Rio Palena Y Costeras Limite Decima Region,1103.0,Rio Rosselot,1999-02-09,2012-08-27,4115,-
11120001,DGA,dga_web,Puerto Puyuhuapi,10,-44.3228,-72.5597,111.0,Costeras E Islas Entre R.Palena Y R.Aisen,1112.0,Costeras Entre Rio Marchant Y Seno Ventisquero,1986-04-01,2013-09-30,9332,-
11140001,DGA,dga_web,Rio Cisnes,740,-44.4975,-71.3064,111.0,Costeras E Islas Entre R.Palena Y R.Aisen,1114.0,Rio Cisnes,1987-01-01,2013-09-30,8430,-
11143003,DGA,dga_web,La Tapera,550,-44.6472,-71.6736,111.0,Costeras E Islas Entre R.Palena Y R.Aisen,1114.0,Rio Cisnes,1995-01-19,2003-05-31,1798,-
11147003,DGA,dga_web,Puerto Cisnes,10,-44.7278,-72.6814,111.0,Costeras E Islas Entre R.Palena Y R.Aisen,1114.0,Rio Cisnes,1986-04-01,2011-12-30,8108,-
11180000,DGA,dga_web,Islas Huichas,6,-45.1553,-73.5164,111.0,Costeras E Islas Entre R.Palena Y R.Aisen,1118.0,Islas Al Este Canal Moraleda,2011-01-01,2018-02-03,2165,2011-01-01
11304001,DGA,dga_web,Villa Maihuales,150,-45.1733,-72.1478,113.0,Rio Aisen,1130.0,Rio Maniguales,1986-05-01,2014-03-31,9506,-
11300001,DGA,dga_web,Estancia Bao Nuevo,700,-45.2669,-71.5292,113.0,Rio Aisen,1130.0,Rio Maniguales,2000-11-24,2016-12-29,5373,-
11302002,DGA,dga_web,Irehuao,535,-45.2706,-71.7092,113.0,Rio Aisen,1130.0,Rio Maniguales,1994-04-01,2014-07-31,4739,-
11307002,DGA,dga_web,Villa Ortega,550,-45.3719,-71.9822,113.0,Rio Aisen,1130.0,Rio Maniguales,1986-04-05,2011-12-31,7681,-
11342002,DGA,dga_web,Puerto Aysen,10,-45.4006,-72.7,113.0,Rio Aisen,1134.0,Rio Aisen Entre Rio Riesco Y Desembocadura,1993-04-01,2001-06-30,2838,-
11316004,DGA,dga_web,Coyhaique Alto,730,-45.4803,-71.6044,113.0,Rio Aisen,1131.0,Rio Simpson,1993-12-03,2018-02-03,7757,2013-11-18
11317005,DGA,dga_web,Coyhaique Conaf,340,-45.5511,-72.0589,113.0,Rio Aisen,1131.0,Rio Simpson,2002-05-01,2016-12-31,5055,-
11316003,DGA,dga_web,Coyhaique (Escuela Agricola),343,-45.5739,-72.0286,113.0,Rio Aisen,1131.0,Rio Simpson,1981-01-01,2018-02-03,11545,2013-03-28
11505001,DGA,dga_web,Rio Ibaez En Desembocadura,220,-46.2692,-71.9908,115.0,Rio Baker,1150.0,R. Ibanez,2006-01-01,2018-02-03,2729,2006-01-01
11511001,DGA,dga_web,Puerto Ibaez,215,-46.2892,-71.9336,115.0,Rio Baker,1151.0,Vertiente N.  Lago J. Miguel Carrera (Exc.  R. Iba$?Ez),1993-12-09,2009-04-14,4032,-
11513001,DGA,dga_web,Bahia Murta,240,-46.4619,-72.6686,115.0,Rio Baker,1151.0,Vertiente N.  Lago J. Miguel Carrera (Exc.  R. Iba$?Ez),1997-10-10,2013-08-29,5491,-
11521005,DGA,dga_web,Lago General Carrera Fachinal,18,-46.5425,-72.2267,115.0,Rio Baker,1152.0,Vertiente Sur Lago General Carrera,2015-12-01,2018-02-03,755,2015-12-01
11521002,DGA,dga_web,Chile Chico,215,-46.5436,-71.7089,115.0,Rio Baker,1152.0,Vertiente Sur Lago Jose Miguel Carrera,1993-05-01,2016-12-31,6027,-
11440000,DGA,dga_web,Glaciar San Rafael,8,-46.6433,-73.8575,114.0,Costeras E Islas Entre R Aisen Y R Baker Y Canal Gral. Martinez,1144.0,Costera Y Ventisqueros Entre R.  Exploradores Y Vent. Benito,2011-01-01,2018-02-03,1965,2011-01-01
11523001,DGA,dga_web,Puerto Guadal,210,-46.8428,-72.7008,115.0,Rio Baker,1152.0,Vertiente Sur Lago Jose Miguel Carrera,1993-12-09,2011-12-13,4428,-
11517002,DGA,dga_web,Lago General Carrera En Desage,210,-46.8456,-72.8033,115.0,Rio Baker,1151.0,Vertiente N.  Lago J. Miguel Carrera (Exc.  R. Iba$?Ez),2015-05-01,2015-05-01,1,-
11532000,DGA,dga_web,Rio Nef Antes Junta Estero El Revalse,281,-47.1378,-73.0869,115.0,Rio Baker,1153.0,R. Baker Entre Desague L. J. M. Carrera Y R. De La Colonia,2011-01-01,2018-02-03,1877,2011-01-01
11536004,DGA,dga_web,Rio Baker En Angostura Chacabuco,160,-47.1414,-72.7258,115.0,Rio Baker,1153.0,R. Baker Entre Desague L. J. M. Carrera Y R. De La Colonia,2003-01-01,2018-02-03,3673,2003-01-01
11540000,DGA,dga_web,Lago Cachet 2 En Glaciar Colonia,427,-47.1981,-73.25,115.0,Rio Baker,1154.0,R. Baker Entre Arriba R. De La Colonia Y Desembocadura,2011-01-01,2018-02-03,1482,2011-01-01
11536003,DGA,dga_web,Aerodromo Cochrane,200,-47.2442,-72.5831,115.0,Rio Baker,1153.0,R. Baker Entre Desague L. J. M. Carrera Y R. De La Colonia,1997-10-01,1998-03-31,182,-
11536001,DGA,dga_web,Rio Cochrane En Cochrane,140,-47.2517,-72.5644,115.0,Rio Baker,1153.0,R. Baker Entre Desague L. J. M. Carrera Y R. De La Colonia,2006-01-01,2016-01-01,1235,2006-01-01
11541000,DGA,dga_web,Rio Colonia En Nacimiento,146,-47.3392,-73.1147,115.0,Rio Baker,1154.0,R. Baker Entre Arriba R. De La Colonia Y Desembocadura,2011-01-01,2018-02-03,1898,2011-01-01
11546001,DGA,dga_web,Caleta Tortel,10,-47.7997,-73.5358,115.0,Rio Baker,1154.0,R. Baker Entre Arriba R. De La Colonia Y Desembocadura,2013-10-23,2018-02-03,1559,2013-10-23
11711000,DGA,dga_web,Rio Pascua Ante Junta Rio Quetru,20,-48.1592,-73.0889,117.0,Rio Pascua,1171.0,Rio Pascua,2003-01-01,2018-02-03,2745,2003-01-01
11700001,DGA,dga_web,Rio Mayer Reten,450,-48.2083,-72.3228,117.0,Rio Pascua,1170.0,Lago O'Higgins,1993-04-18,2004-08-31,3242,-
11701002,DGA,dga_web,Villa Ohiggins,270,-48.4692,-72.5589,117.0,Rio Pascua,1170.0,Lago O'Higgins,1993-10-01,2008-12-25,4652,-
11702000,DGA,dga_web,Lago Ohiggins En Villa Ohiggins,300,-48.5169,-72.5953,117.0,Rio Pascua,1170.0,Lago O'Higgins,2003-01-01,2008-01-01,1285,2003-01-01
12000000,DGA,dga_web,Glaciar Tempano,20,-48.8347,-74.1831,120.0,Costeras Entre Limite Region Y Seno Andrew,1200.0,Costeras Del Canal Mesier Entre Limite Region Y Peninsula Exmouth,2011-01-01,2018-01-30,1879,2011-01-01
11704001,DGA,dga_web,Candelario Mancilla,300,-48.8775,-72.7394,117.0,Rio Pascua,1170.0,Lago O'Higgins,1993-10-26,2018-02-03,5450,2003-01-01
11706000,DGA,dga_web,Glaciar Ohiggins,5,-48.9272,-73.1172,117.0,Rio Pascua,1170.0,Lago O'Higgins,2011-01-01,2018-02-03,1548,2011-01-01
12125001,DGA,dga_web,Puerto Eden,10,-49.1228,-74.4069,121.0,Islas Entre Limite Region Y Canal Ancho Y Estrecho De La Concepcion,1212.0,Isla Wellington E Isla Entre Esta Y El Oriente,1998-02-12,2011-11-30,2461,-
12280004,DGA,dga_web,Lago Dickson,200,-50.8228,-73.1125,122.0,Costeras Entre Seno Andrew Y R. Hollemberg E Islas Al Oriente,1228.0,Rio Serrano,1999-06-24,2018-02-03,4148,1999-06-24
12283004,DGA,dga_web,Laguna Azul,240,-50.8789,-72.7328,122.0,Costeras Entre Seno Andrew Y R. Hollemberg E Islas Al Oriente,1228.0,Rio Serrano,1997-07-01,2003-03-17,845,-
12283001,DGA,dga_web,Cerro Guido,230,-50.8986,-72.3314,122.0,Costeras Entre Seno Andrew Y R. Hollemberg E Islas Al Oriente,1228.0,Rio Serrano,1991-12-01,2018-02-03,8278,2013-04-01
12284006,DGA,dga_web,Rio Las Chinas En Cerro Guido,75,-51.0508,-72.5169,122.0,Costeras Entre Seno Andrew Y R. Hollemberg E Islas Al Oriente,1228.0,Rio Serrano,2003-01-01,2018-02-03,3756,2003-01-01
12288000,DGA,dga_web,Glaciar Tindall,345,-51.1158,-73.2825,122.0,Costeras Entre Seno Andrew Y R. Hollemberg E Islas Al Oriente,1228.0,Rio Serrano,2011-01-01,2018-02-03,2199,2011-01-01
12286001,DGA,dga_web,Torres Del Paine,25,-51.1842,-72.9669,122.0,Costeras Entre Seno Andrew Y R. Hollemberg E Islas Al Oriente,1228.0,Rio Serrano,1964-03-04,2018-02-03,17159,2012-06-21
12284010,DGA,dga_web,Cerro Castillo,130,-51.26,-72.3272,122.0,Costeras Entre Seno Andrew Y R. Hollemberg E Islas Al Oriente,1228.0,Rio Serrano,1997-02-01,2018-02-03,6614,2013-08-28
12293001,DGA,dga_web,Puerto Natales,45,-51.7336,-72.4781,122.0,Costeras Entre Seno Andrew Y R. Hollemberg E Islas Al Oriente,1229.0,Costeras Entre Rio Serrano Y Rio Hollenberg,1987-05-12,2018-01-25,10225,2012-04-21
12680001,DGA,dga_web,Monte Aymond,160,-52.1644,-69.6078,126.0,Vertiente Del Atlantico,1268.0,Costeras Entre Canadon Seco Y Canadon Grande,1998-09-11,2018-02-03,6150,2013-10-01
12620000,DGA,dga_web,Penitente Alto,290,-52.2092,-71.6806,126.0,Vertiente Del Atlantico,1262.0,Rio Penitente,2010-05-10,2018-02-03,2188,2011-01-01
12403000,DGA,dga_web,Seno Obstruccin,4,-52.2094,-72.4783,124.0,Costeras E Islas Entre R Hollemberg Golfo Alte. Laguna Blanca,1240.0,Costeras Del Golfo Almirante Montt Y Fiordo Obstruccion,2010-01-01,2018-02-03,2368,2011-01-01
12540001,DGA,dga_web,Ohiggins Villa,70,-52.3161,-69.6881,125.0,Costeras Entre Lag.  Blanca(Inc) Seno Otway Canal Jeronimo Y Magallanes,1254.0,Costeras Entre Chorrillo Kimiri Aike (Incl.) Y Canadon Grande (Incl.),1995-07-01,1998-09-14,807,-
12622002,DGA,dga_web,Villa Tehuelche,190,-52.4414,-71.4022,126.0,Vertiente Del Atlantico,1262.0,Rio Penitente,1991-12-01,2018-02-03,9242,2012-02-01
12452002,DGA,dga_web,Rio Perez,5,-52.5486,-71.9603,124.0,Costeras E Islas Entre R Hollemberg Golfo Alte. Laguna Blanca,1245.0,Costeras Continentales Del Seno Skyring,1991-04-01,2010-04-30,2913,-
12452001,DGA,dga_web,Rio Perez En Desembocadura,20,-52.5492,-71.9747,124.0,Costeras E Islas Entre R Hollemberg Golfo Alte. Laguna Blanca,1245.0,Costeras Continentales Del Seno Skyring,2010-05-01,2018-02-03,2502,2012-01-01
12802001,DGA,dga_web,Rio Side En Cerro Sombrero,10,-52.7681,-69.2772,128.0,Tierra Del Fuego,1280.0,Costeras Del Estrecho Magallanes Entre Frontera Y Cabo Monmouth,2011-01-01,2018-02-03,2227,2011-01-01
12449002,DGA,dga_web,Cordillera Riesco,456,-52.8425,-71.7642,124.0,Costeras E Islas Entre R Hollemberg Golfo Alte. Laguna Blanca,1244.0,Isla Riesco,2011-01-01,2018-02-03,2227,2011-01-01
12806005,DGA,dga_web,Sarita En Bahia San Felipe,15,-52.8675,-69.9,128.0,Tierra Del Fuego,1280.0,"Costeras Del E Magallanes, Cabo Esp. Santo Y C. Mo",1982-05-22,1984-12-28,852,-
12806004,DGA,dga_web,Bahia San Felipe,10,-52.8697,-69.9319,128.0,Tierra Del Fuego,1280.0,Costeras Del Estrecho Magallanes Entre Frontera Y Cabo Monmouth,1987-05-28,2018-02-03,9525,2013-10-01
12449001,DGA,dga_web,Isla Riesco,10,-52.8819,-71.5706,124.0,Costeras E Islas Entre R Hollemberg Golfo Alte. Laguna Blanca,1244.0,Isla Riesco,1997-11-01,2015-02-28,5063,-
12448001,DGA,dga_web,Rio Grande En Isla Riesco,5,-52.9964,-71.8706,124.0,Costeras E Islas Entre R Hollemberg Golfo Alte. Laguna Blanca,1244.0,Isla Riesco,2010-06-01,2011-04-20,293,-
12586004,DGA,dga_web,Punta Arenas,5,-53.1233,-70.8772,125.0,Costeras Entre Lag.  Blanca(Inc) Seno Otway Canal Jeronimo Y Magallanes,1258.0,Costeras E Islas Orientales De La Peninsula Brunswick,1973-11-15,2018-02-03,16045,2016-04-01
12586009,DGA,dga_web,Canal De Trasvase Estero Llau-Llau,80,-53.125,-70.9358,125.0,Costeras Entre Lag.  Blanca(Inc) Seno Otway Canal Jeronimo Y Magallanes,1258.0,Costeras E Islas Orientales De La Peninsula Brunswick,2003-01-01,2018-02-03,3279,2003-01-01
12586010,DGA,dga_web,Magdalena Giglio 2,432,-53.1397,-71.0561,125.0,Costeras Entre Lag.  Blanca(Inc) Seno Otway Canal Jeronimo Y Magallanes,1258.0,Costeras E Islas Orientales De La Peninsula Brunswick,2011-01-01,2018-02-03,1627,2011-01-01
12586006,DGA,dga_web,Cerro Mirador,580,-53.1842,-71.0833,125.0,Costeras Entre Lag.  Blanca(Inc) Seno Otway Canal Jeronimo Y Magallanes,1258.0,Costeras E Islas Orientales De La Peninsula Brunswick,2016-12-26,2018-02-03,404,2016-12-26
12809001,DGA,dga_web,Porvenir,35,-53.2908,-70.37,128.0,Tierra Del Fuego,1280.0,Costeras Del Estrecho Magallanes Entre Frontera Y Cabo Monmouth,1997-07-01,2018-02-03,6651,2015-03-01
12815001,DGA,dga_web,Onaisin En Maria Cristina,30,-53.3056,-69.2675,128.0,Tierra Del Fuego,1281.0,Costeras Bahia Inutil (Entre Cabo Monmouth Y Cabo Nose),1993-04-08,2018-02-03,8804,2012-09-01
12863001,DGA,dga_web,San Sebastian,20,-53.3217,-68.6614,128.0,Tierra Del Fuego,1286.0,Cuencas Atlanticas Hasta Frontera Entre Arroyo Alfa (Incl.) Y Afluentes R. Grande (Arg.),1993-04-07,2018-02-03,8430,2013-10-01
12582003,DGA,dga_web,Lago Parrillar,320,-53.4025,-71.2497,125.0,Costeras Entre Lag.  Blanca(Inc) Seno Otway Canal Jeronimo Y Magallanes,1258.0,Costeras E Islas Orientales De La Peninsula Brunswick,2011-01-01,2018-02-03,1820,2011-01-01
12873001,DGA,dga_web,Russfin,225,-53.7594,-69.1892,128.0,Tierra Del Fuego,1287.0,Afluentes Rio Grande Y Cuencas Cerradas,1993-11-01,2018-02-03,4393,2013-10-01
12876002,DGA,dga_web,Seccion Rio Grande,130,-53.8967,-68.9183,128.0,Tierra Del Fuego,1287.0,Afluentes Rio Grande Y Cuencas Cerradas,1991-12-14,1993-02-28,414,-
12821000,DGA,dga_web,Rio Condor,10,-53.9964,-70.0781,128.0,Tierra Del Fuego,1282.0,Costeras Entre Cabo Nose Y R. Azopardo (Incl.),2011-01-01,2018-02-03,2066,2011-01-01
12876003,DGA,dga_web,Pampa Huanaco,150,-54.0497,-68.7997,128.0,Tierra Del Fuego,1287.0,Afluentes Rio Grande Y Cuencas Cerradas,1995-10-07,2018-02-03,7724,2013-10-01
12879000,DGA,dga_web,Lago Deseado,170,-54.3378,-68.8242,128.0,Tierra Del Fuego,1287.0,Afluentes Rio Grande Y Cuencas Cerradas,2011-01-01,2018-02-03,2180,2011-01-01
12878002,DGA,dga_web,Bahia Yendegaia,10,-54.8817,-68.6825,128.0,Tierra Del Fuego,1287.0,Afluentes Rio Grande Y Cuencas Cerradas,2016-11-01,2018-02-03,459,2016-11-01
12930004,DGA,dga_web,Puerto Navarino,10,-54.9256,-68.3236,129.0,Islas Al Sur Del Canal Beagle Y Territorio Antartico,1293.0,Islas Navarino Y Gable,2011-01-01,2018-02-03,2227,2011-01-01
12930001,DGA,dga_web,Rio Robalo En Puerto Williams,80,-54.9469,-67.6392,129.0,Islas Al Sur Del Canal Beagle Y Territorio Antartico,1293.0,Islas Navarino Y Gable,2003-01-01,2018-02-03,2785,2003-01-01
12930005,DGA,dga_web,Puerto Toro,10,-55.0822,-67.0758,129.0,Islas Al Sur Del Canal Beagle Y Territorio Antartico,1293.0,Islas Navarino Y Gable,2011-01-01,2018-02-03,2079,2011-01-01
950002,DMC,dmc_anuarios,Arturo Prat Base Antartica,5,-62.4786,-59.6642,-1.0,No Disponible,-1.0,No Disponible,2016-01-01,2018-02-05,644,-
950003,DMC,dmc_anuarios,Bernardo O'Higgins Base Antartica,10,-63.3208,-57.8994,-1.0,No Disponible,-1.0,No Disponible,2016-01-01,2018-02-05,767,-
180005,DMC,dmc_merge,Chacalluta Arica Ap.,63,-18.3514,-70.3358,10.0,Altiplanicas,100.0,Entre Limite Peru - Bolivia Y Rio Lauca,1966-01-01,2018-02-05,19012,-
200006,DMC,dmc_merge,Diego Aracena Iquique Ap.,52,-20.5397,-70.1786,10.0,Altiplanicas,104.0,Entre Estero Sencata Y Rio Sacaya,1950-01-01,2018-02-05,24854,-
230001,DMC,dmc_merge,Cerro Moreno Antofagasta Ap.,113,-23.4503,-70.4411,20.0,Fronterizas Salar Michincha-R.Loa,200.0,Salar De Ollague,1950-01-01,2018-02-05,24582,-
270008,DMC,dmc_merge,Desierto De Atacama Caldera Ap.,204,-27.2639,-70.7742,30.0,Endorreicas Entre Frontera Y Vertiente Del Pacifico,304.0,Salar De Maricunga,2005-02-01,2018-02-05,4477,-
290004,DMC,dmc_merge,La Florida La Serena Ad.,142,-29.9175,-71.2011,41.0,Rio Los Choros,412.0,Q. Los Choros Entre Q. Del Pelicano Y Desembocadura,1950-04-10,2018-02-05,23840,-
330007,DMC,dmc_merge,Rodelillo Ad.,330,-33.0367,-71.5342,50.0,Costeras Quilimari-Petorca,500.0,Costeras Quilimari - Petorca,2016-01-01,2018-02-05,767,-
330020,DMC,dmc_merge,Quinta Normal Santiago,527,-33.445,-70.6828,57.0,Rio Maipo,573.0,Mapocho Bajo,1950-01-01,2018-02-05,24845,-
340031,DMC,dmc_merge,General Freire Curico Ad.,225,-34.9664,-71.2167,61.0,Costeras Rapel-E.Nilahue,613.0,Estero Nilahue,1950-01-01,2018-02-05,23186,-
360011,DMC,dmc_merge,Bernardo O'Higgins Chillan Ad.,151,-36.5872,-72.04,81.0,Rio Itata,810.0,Nuble Alto,1950-01-01,2018-02-05,22233,-
360019,DMC,dmc_merge,Carriel Sur Concepcion.,12,-36.7792,-73.0622,81.0,Rio Itata,810.0,Nuble Alto,1950-01-01,2018-02-05,24754,-
380013,DMC,dmc_merge,Maquehue Temuco Ad.,92,-38.77,-72.6369,83.0,Rio Bio Bio,830.0,Rio Bio-Bio Alto (Hasta Despues Junta Rio Lamin),1950-01-02,2018-02-05,23507,-
390006,DMC,dmc_merge,Pichoy Valdivia Ad.,21,-39.6506,-73.0808,101.0,Rio Valdivia,1010.0,Rio Valdivia Alto (Hasta Desague Lago Panguipulli),1950-01-01,2018-02-05,23526,-
400009,DMC,dmc_merge,Canal Bajo Osorno Ad.,61,-40.605,-73.0608,104.0,Cuencas E Islas Entre R.Bueno Y R. Puelo,1040.0,Costeras Entre Rio Bueno Y Rio Maullin,1950-01-01,2018-02-05,24380,-
410005,DMC,dmc_merge,El Tepual Puerto Montt Ap.,85,-41.435,-73.0978,104.0,Cuencas E Islas Entre R.Bueno Y R. Puelo,1040.0,Costeras Entre Rio Bueno Y Rio Maullin,1950-02-01,2018-02-05,22164,-
450001,DMC,dmc_merge,Puerto Aysen Ad.,10,-45.3961,-72.6639,113.0,Rio Aisen,1134.0,Rio Aisen Entre Rio Riesco Y Desembocadura,1950-01-01,2018-02-05,21548,-
450004,DMC,dmc_merge,Teniente Vidal Coyhaique Ad.,310,-45.5939,-72.1086,113.0,Rio Aisen,1131.0,Rio Simpson,1952-01-01,2018-02-05,23579,-
450005,DMC,dmc_merge,Balmaceda Ad.,517,-45.9128,-71.6942,113.0,Rio Aisen,1131.0,Rio Simpson,1950-12-01,2018-02-05,23852,-
460001,DMC,dmc_merge,Chile Chico Ad.,306,-46.5808,-71.6928,115.0,Rio Baker,1152.0,Vertiente Sur Lago Jose Miguel Carrera,1952-01-01,2018-02-05,19832,-
470001,DMC,dmc_merge,Lord Cochrane Ad.,204,-47.2439,-72.5864,115.0,Rio Baker,1153.0,R. Baker Entre Desague L. J. M. Carrera Y R. De La Colonia,1970-01-01,2018-02-05,16878,-
520006,DMC,dmc_merge,Punta Arenas,38,-53.0033,-70.845,125.0,Costeras Entre Lag.  Blanca(Inc) Seno Otway Canal Jeronimo Y Magallanes,1258.0,Costeras E Islas Orientales De La Peninsula Brunswick,1958-01-01,2018-02-05,21932,-
550001,DMC,dmc_merge,Guardia Marina Zanartu Pto Williams Ad.,10,-54.9317,-67.6156,129.0,Islas Al Sur Del Canal Beagle Y Territorio Antartico,1293.0,Islas Navarino Y Gable,1968-02-12,2018-02-05,15219,-
950001,DMC,dmc_merge,Eduardo Frei Montalva Antartica,1,-62.1997,-58.9642,-1.0,No Disponible,-1.0,No Disponible,1970-01-01,2018-02-05,17513,-
220002,DMC,dmc_web,El Loa Calama Ad.,2293,-22.4989,-68.9072,20.0,Fronterizas Salar Michincha-R.Loa,200.0,Salar De Ollague,1967-01-01,2018-02-05,18181,-
270001,DMC,dmc_web,Mataveri Isla De Pascua Ap.,48,-27.1606,-109.427,50.0,Costeras Quilimari-Petorca,500.0,Costeras Quilimari - Petorca,1954-06-14,2018-02-04,17715,-
330021,DMC,dmc_web,Pudahuel Santiago,482,-33.3919,-70.7944,57.0,Rio Maipo,573.0,Mapocho Bajo,1966-01-04,2018-02-05,18622,-
330019,DMC,dmc_web,Eulogio Sanchez Tobalaba Ad.,650,-33.4544,-70.5478,57.0,Rio Maipo,573.0,Mapocho Bajo,1954-10-11,2018-02-05,16471,-
330031,DMC,dmc_web,Juan Fernandez Estacion Meteorologica,35,-33.6367,-78.835,50.0,Costeras Quilimari-Petorca,500.0,Costeras Quilimari - Petorca,1958-10-01,2018-02-05,20168,-
330030,DMC,dmc_web,Santo Domingo Ad.,75,-33.655,-71.6142,50.0,Costeras Quilimari-Petorca,500.0,Costeras Quilimari - Petorca,1966-08-01,2018-02-05,18364,-
370033,DMC,dmc_web,Maria Dolores Los Angeles Ad.,120,-37.4028,-72.4225,81.0,Rio Itata,810.0,Nuble Alto,1952-01-01,2018-02-05,10474,-
420004,DMC,dmc_web,Chaiten Ad.,10,-42.9303,-72.7008,104.0,Cuencas E Islas Entre R.Bueno Y R. Puelo,1040.0,Costeras Entre Rio Bueno Y Rio Maullin,1965-11-02,2008-04-29,11725,-
430002,DMC,dmc_web,Futaleufu Ad.,347,-43.1889,-71.8525,104.0,Cuencas E Islas Entre R.Bueno Y R. Puelo,1040.0,Costeras Entre Rio Bueno Y Rio Maullin,1953-09-01,2018-02-01,19835,-
430004,DMC,dmc_web,Alto Palenaad.,281,-43.6117,-71.8053,104.0,Cuencas E Islas Entre R.Bueno Y R. Puelo,1040.0,Costeras Entre Rio Bueno Y Rio Maullin,1961-12-01,2018-02-05,17986,-
510005,DMC,dmc_web,Teniente Gallardo Puerto Natales Ad.,69,-51.6672,-72.5289,122.0,Costeras Entre Seno Andrew Y R. Hollemberg E Islas Al Oriente,1229.0,Costeras Entre Rio Serrano Y Rio Hollenberg,1999-01-01,2018-02-05,3850,-
530005,DMC,dmc_web,Fuentes Martinez Porvenir Ad.,27,-53.1875,-70.3203,128.0,Tierra Del Fuego,1280.0,Costeras Del Estrecho Magallanes Entre Frontera Y Cabo Monmouth,1985-04-01,2018-02-05,10747,-
COM00080002,GHCN,ghcn_ftp,El Embrujo,3,13.357,-81.358,,,,,1983-11-14,2018-02-02,1929,-
CO000080001,GHCN,ghcn_ftp,San Andres (Isla)/S,6,12.583,-81.717,,,,,1965-04-24,2018-02-02,11991,-
VE000080405,GHCN,ghcn_ftp,La Orchila,3,11.8,-66.183,,,,,1959-01-01,1993-06-22,3848,-
COM00080035,GHCN,ghcn_ftp,Almirante Padilla,13,11.526,-72.926,,,,,1973-01-05,2018-02-02,3754,-
VEM00080403,GHCN,ghcn_ftp,Jose Leonardo Chirinos,16,11.415,-69.681,,,,,1959-01-01,2016-10-05,10209,-
COM00080009,GHCN,ghcn_ftp,Simon Bolivar,7,11.12,-74.231,,,,,1964-09-16,2018-02-02,9297,-
VEM00080421,GHCN,ghcn_ftp,Porlamar (Aeropuerto Int. Del,19,10.917,-63.967,,,,,1975-08-09,2016-02-13,5554,-
COM00080028,GHCN,ghcn_ftp,Ernesto Cortissoz,30,10.89,-74.781,,,,,1961-01-01,2018-02-02,10897,-
VEM00080415,GHCN,ghcn_ftp,Simon Bolivar Intl,72,10.603,-66.991,,,,,1973-01-02,2016-06-11,7496,-
VE000080423,GHCN,ghcn_ftp,Guiria,14,10.583,-62.317,,,,,1961-01-01,2016-10-05,15503,-
VEM00080407,GHCN,ghcn_ftp,La Chinita Intl,72,10.558,-71.728,,,,,1959-01-01,2016-10-06,9040,-
VEM00080476,GHCN,ghcn_ftp,La Canada,26,10.517,-71.65,,,,,1983-11-14,2016-03-22,2523,-
VEM00080416,GHCN,ghcn_ftp,Generalisimo Francisco De Mir,856,10.485,-66.844,,,,,1973-05-22,2010-08-23,4491,-
VEM00080412,GHCN,ghcn_ftp,General Bartolome Salom Intl,10,10.481,-68.073,,,,,1962-08-02,1993-08-23,3474,-
VEM00080420,GHCN,ghcn_ftp,Antonio Jose De Sucre,4,10.45,-64.13,,,,,1984-07-01,2016-04-02,4335,-
COM00080022,GHCN,ghcn_ftp,Rafael Nunez,1,10.442,-75.513,,,,,1963-11-25,2018-02-01,8427,-
COM00080036,GHCN,ghcn_ftp,Alfonso Lopez Pumarejo,147,10.435,-73.25,,,,,1969-08-20,2018-02-02,5081,-
VEM00080479,GHCN,ghcn_ftp,Palmichal,1000,10.3,-68.233,,,,,1992-02-02,2003-05-12,2583,-
VE000080413,GHCN,ghcn_ftp,Maracay - B.A. Sucr,437,10.25,-67.65,,,,,1959-01-01,2016-10-05,16479,-
VEM00080472,GHCN,ghcn_ftp,Arturo Michelena Intl,430,10.15,-67.928,,,,,1991-12-02,2016-07-27,2877,-
VEM00080419,GHCN,ghcn_ftp,General Jose Antonio Anzoateg,8,10.107,-64.689,,,,,1973-05-12,2015-05-29,4848,-
VEM00080410,GHCN,ghcn_ftp,Barquisimeto Intl,622,10.043,-69.359,,,,,1959-01-01,2016-10-06,8487,-
VE000002417,GHCN,ghcn_ftp,San Juan De Los Mor,429,9.917,-67.333,,,,,1987-01-30,2016-07-27,4129,-
VE000080425,GHCN,ghcn_ftp,Mene Grande,28,9.817,-70.933,,,,,1961-01-01,2016-04-01,16547,-
VEM00080435,GHCN,ghcn_ftp,Maturin,68,9.749,-63.153,,,,,1973-05-22,2016-03-25,5309,-
VEM00080427,GHCN,ghcn_ftp,Oswaldo Guevara Mujica,195,9.553,-69.238,,,,,1973-05-22,2016-04-04,5903,-
VEM00080432,GHCN,ghcn_ftp,Carrizal,161,9.417,-66.917,,,,,1981-07-14,2014-08-19,345,-
VEM00080426,GHCN,ghcn_ftp,Dr Antonio Nicolas Briceno,628,9.34,-70.584,,,,,1982-11-27,2016-07-27,5111,-
VE000002589,GHCN,ghcn_ftp,Valle De La Pascua,125,9.233,-66.0,,,,,1991-12-11,2016-02-16,682,-
VEM00080428,GHCN,ghcn_ftp,Guanare,185,9.027,-69.755,,,,,1973-05-24,2016-10-05,7143,-
VEM00080478,GHCN,ghcn_ftp,Temblador (Private),30,9.017,-62.617,,,,,1982-11-01,1997-04-05,857,-
VEM00080442,GHCN,ghcn_ftp,Calabozo,100,8.925,-67.417,,,,,1992-02-02,2013-07-16,3144,-
COM00080063,GHCN,ghcn_ftp,Los Garzones,11,8.824,-75.826,,,,,1964-09-20,2018-02-02,4281,-
VEM00080437,GHCN,ghcn_ftp,El Vigia,103,8.633,-71.65,,,,,1992-09-02,2016-03-30,1360,-
VEM00080440,GHCN,ghcn_ftp,Barinas,203,8.62,-70.221,,,,,1991-12-04,2016-10-05,2959,-
VE000080438,GHCN,ghcn_ftp,Merida,1498,8.6,-71.183,,,,,1961-01-01,2016-10-07,16992,-
VEM00080444,GHCN,ghcn_ftp,Ciudad Bolivar,60,8.122,-63.537,,,,,1973-05-18,2016-03-28,4690,-
COM00080097,GHCN,ghcn_ftp,Camilo Daza,334,7.928,-72.512,,,,,1964-09-16,2018-02-02,8049,-
VEM00080447,GHCN,ghcn_ftp,San Antonio Del Tachira,400,7.841,-72.44,,,,,1973-05-12,2016-10-06,6683,-
COM00080084,GHCN,ghcn_ftp,Antonio Roldan Betancourt,14,7.812,-76.716,,,,,1984-12-29,2018-02-02,3041,-
VE000080450,GHCN,ghcn_ftp,San Fernando,47,7.68,-67.42,,,,,1961-01-01,2016-09-10,16180,-
VEM00080475,GHCN,ghcn_ftp,Mayor Buenaventura Vivas,330,7.565,-72.035,,,,,1982-08-21,2015-10-14,2653,-
VE000080453,GHCN,ghcn_ftp,Tumeremo,181,7.3,-61.45,,,,,1961-01-01,2000-12-31,14444,-
VEM00080448,GHCN,ghcn_ftp,Guasdualito,130,7.211,-70.756,,,,,1974-03-02,2016-10-07,4493,-
COM00080094,GHCN,ghcn_ftp,Palonegro,1188,7.127,-73.185,,,,,1975-04-05,2018-02-01,8438,-
COM00080099,GHCN,ghcn_ftp,Santiago Perez,128,7.069,-70.737,,,,,1964-09-20,2018-02-02,4902,-
COM00080091,GHCN,ghcn_ftp,Yariguies,126,7.024,-73.807,,,,,1964-09-16,2018-02-02,6901,-
GYM00081001,GHCN,ghcn_ftp,Georgetown,2,6.8,-58.15,,,,,1979-11-03,2018-02-02,3159,-
GYW00010502,GHCN,ghcn_ftp,Georgetown,29,6.5,-58.25,,,,,1949-01-01,2018-02-02,3695,-
COM00080110,GHCN,ghcn_ftp,Olaya Herrera,1506,6.22,-75.591,,,,,1958-01-06,2018-02-02,8957,-
VE000005484,GHCN,ghcn_ftp,Puerto Carreno/A.Gu,55,6.167,-67.5,,,,,1980-10-16,2018-02-01,2175,-
COM00080112,GHCN,ghcn_ftp,Jose Maria Cordova,2142,6.165,-75.423,,,,,1986-01-24,2018-02-02,6244,-
COM00080144,GHCN,ghcn_ftp,El Carano,62,5.691,-76.641,,,,,1965-03-26,2018-02-02,4553,-
VEM00080457,GHCN,ghcn_ftp,Casique Aramare,75,5.62,-67.606,,,,,1973-05-12,2016-10-06,4357,-
FGM00081401,GHCN,ghcn_ftp,St Laurent Du Maron,9,5.5,-54.033,,,,,1973-09-14,2018-01-30,8086,-
NSM00081225,GHCN,ghcn_ftp,Johan A Pengel Intl,18,5.453,-55.188,,,,,1973-05-24,2013-06-19,6604,-
FG000081405,GHCN,ghcn_ftp,Rochambeau,9,4.833,-52.367,,,,,1950-01-01,2018-02-02,22536,-
COM00080210,GHCN,ghcn_ftp,Matecana,1346,4.813,-75.74,,,,,1963-04-17,2018-02-02,9868,-
CO000080222,GHCN,ghcn_ftp,Bogota/Eldorado,2548,4.701,-74.15,,,,,1961-02-01,2018-02-02,16021,-
VE000080462,GHCN,ghcn_ftp,Santa Elena De Uair,907,4.6,-61.117,,,,,1961-01-01,2016-03-25,14171,-
CO000080241,GHCN,ghcn_ftp,Las Gaviotas,167,4.55,-70.917,,,,,1973-05-18,2002-05-02,7498,-
COM00080211,GHCN,ghcn_ftp,El Eden,1216,4.453,-75.766,,,,,1964-09-17,2018-02-02,5342,-
COM00080214,GHCN,ghcn_ftp,Perales,949,4.422,-75.133,,,,,1973-01-05,2018-02-02,6405,-
COM00080234,GHCN,ghcn_ftp,Vanguardia,425,4.168,-73.614,,,,,1964-09-30,2018-02-02,6826,-
FGM00081408,GHCN,ghcn_ftp,Saint Georges,7,3.883,-51.8,,,,,1973-09-17,2017-05-08,7333,-
FGM00081415,GHCN,ghcn_ftp,Maripasoula,106,3.633,-54.033,,,,,1973-09-17,2017-10-06,7668,-
CO000080259,GHCN,ghcn_ftp,Cali/Alfonso Bonill,969,3.55,-76.383,,,,,1961-01-01,2018-02-02,14003,-
COM00080315,GHCN,ghcn_ftp,Benito Salas,446,2.95,-75.294,,,,,1964-09-20,2018-02-02,7872,-
BRM00082024,GHCN,ghcn_ftp,Boa Vista,90,2.817,-60.65,,,,,1974-06-21,1997-03-03,176,-
BR008250003,GHCN,ghcn_ftp,Amapa,10,2.067,-50.85,,,,,1973-01-05,1975-01-08,384,-
BR008161001,GHCN,ghcn_ftp,Caracarai,95,1.833,-61.133,,,,,1990-07-06,2003-03-07,3,-
CO000080342,GHCN,ghcn_ftp,Pasto/Antonio Narin,1826,1.417,-77.267,,,,,1961-08-01,2018-02-02,13110,-
COM00080370,GHCN,ghcn_ftp,San Luis,2976,0.862,-77.672,,,,,1964-09-16,2018-02-02,6495,-
ECM00084036,GHCN,ghcn_ftp,San Gabriel,2860,0.6,-77.817,,,,,2011-07-16,2018-01-18,1558,-
ECW00050904,GHCN,ghcn_ftp,Galapagos Island Nf,23,0.4333,-90.2833,,,,,1945-04-01,1946-03-29,266,-
BRM00082098,GHCN,ghcn_ftp,Macapa,17,0.051,-51.072,,,,,1973-01-05,2018-01-10,6480,-
ECM00084050,GHCN,ghcn_ftp,La Concordia,360,0.017,-79.367,,,,,2011-07-04,2018-02-02,1604,-
BRM00082106,GHCN,ghcn_ftp,Sao Gabriel Da Cach,90,-0.133,-67.083,,,,,1974-06-18,2008-09-28,283,-
ECM00084088,GHCN,ghcn_ftp,Izobamba,3058,-0.35,-78.55,,,,,2011-07-04,2018-02-02,1563,-
BR000065001,GHCN,ghcn_ftp,Tapurucuara,6,-0.417,-65.0,,,,,1973-01-10,1980-06-29,443,-
BR000047002,GHCN,ghcn_ftp,Salinopolis,14,-0.617,-47.383,,,,,1985-05-12,2018-01-04,897,-
ECM00084132,GHCN,ghcn_ftp,Nuevo Rocafuerte,265,-0.917,-75.417,,,,,2011-07-04,2018-02-02,1431,-
ECM00084008,GHCN,ghcn_ftp,San Cristobal,19,-0.917,-89.617,,,,,1985-04-18,2017-11-11,228,-
BRM00082113,GHCN,ghcn_ftp,Barcelos,34,-0.981,-62.92,,,,,1973-07-30,2003-03-07,322,-
ECM00084135,GHCN,ghcn_ftp,Portoviejo,60,-1.033,-80.45,,,,,2011-07-04,2018-02-02,1409,-
EC000000006,GHCN,ghcn_ftp,Pichilingue,73,-1.1,-79.467,,,,,2011-07-04,2018-02-02,1597,-
BRM00082193,GHCN,ghcn_ftp,Val De Cans Intl,17,-1.379,-48.476,,,,,1973-10-21,2018-02-01,5430,-
BRM00082191,GHCN,ghcn_ftp,Belem,10,-1.45,-48.467,,,,,1973-08-15,1996-07-26,753,-
ECM00084179,GHCN,ghcn_ftp,Puyo,960,-1.5,-77.9,,,,,2011-07-04,2018-02-02,1433,-
BR026393280,GHCN,ghcn_ftp,Turiacu,44,-1.717,-45.4,,,,,1977-08-09,1993-01-12,230,-
BR000152000,GHCN,ghcn_ftp,Porto De Moz,16,-1.733,-52.233,,,,,1973-08-17,1988-02-04,21,-
BRM00082181,GHCN,ghcn_ftp,Monte Alegre,146,-2.0,-54.083,,,,,1991-09-09,2013-07-10,5,-
BR000249000,GHCN,ghcn_ftp,Cameta,24,-2.25,-49.5,,,,,1991-09-18,1991-11-20,2,-
BR000254000,GHCN,ghcn_ftp,Santarem-Aeroporto,60,-2.433,-54.717,,,,,1973-01-05,2007-04-02,2181,-
BR027510430,GHCN,ghcn_ftp,Sao Luiz,51,-2.533,-44.3,,,,,1974-07-22,1993-01-12,354,-
BRM00082212,GHCN,ghcn_ftp,Fonte Boa,56,-2.533,-66.167,,,,,1974-06-21,2003-03-07,170,-
ECM00084226,GHCN,ghcn_ftp,Canar,3083,-2.55,-78.933,,,,,1973-01-04,2018-01-18,1919,-
BRM00082246,GHCN,ghcn_ftp,Belterra,176,-2.633,-54.95,,,,,1974-06-19,1997-08-27,87,-
BR027568450,GHCN,ghcn_ftp,Parnaiba (Aeroporto,5,-2.917,-41.75,,,,,1973-01-05,1983-11-03,752,-
BRM00082287,GHCN,ghcn_ftp,Parnaiba,22,-3.083,-41.783,,,,,1977-11-19,1996-09-09,197,-
BRM00082336,GHCN,ghcn_ftp,Itacoatiara,43,-3.127,-58.481,,,,,1989-11-21,2018-02-01,347,-
BRM00082331,GHCN,ghcn_ftp,Manaus,72,-3.133,-60.017,,,,,1973-02-21,1994-09-03,280,-
BR000352000,GHCN,ghcn_ftp,Altamira,112,-3.2,-52.2,,,,,1973-01-06,2018-02-02,2391,-
PEM00084370,GHCN,ghcn_ftp,Pedro Canga,35,-3.553,-80.381,,,,,1974-03-15,2018-02-02,10891,-
BR027794310,GHCN,ghcn_ftp,Sobral,83,-3.7,-40.35,,,,,1974-06-18,1988-12-03,289,-
BR028724960,GHCN,ghcn_ftp,Fortaleza,26,-3.767,-38.6,,,,,1974-07-03,1996-09-09,394,-
PE000084377,GHCN,ghcn_ftp,Iquitos,126,-3.783,-73.3,,,,,1973-01-02,2018-02-02,11686,-
BRM00082361,GHCN,ghcn_ftp,Tucurui,253,-3.786,-49.72,,,,,1991-09-09,2017-10-09,1623,-
BRM00082326,GHCN,ghcn_ftp,Codajas,49,-3.833,-62.083,,,,,1992-12-10,2001-11-30,4,-
BR000082400,GHCN,ghcn_ftp,Fernando De Noronha,59,-3.85,-32.417,,,,,1944-02-29,2018-02-02,9022,-
ECM00084270,GHCN,ghcn_ftp,Loja/La Argelia,2160,-4.033,-79.2,,,,,2011-07-04,2018-02-02,1523,-
BRM00082425,GHCN,ghcn_ftp,Coari,46,-4.083,-63.133,,,,,1974-06-19,2003-12-05,241,-
COM00080398,GHCN,ghcn_ftp,Alfredo Vasquez Cobo,84,-4.193,-69.943,,,,,1967-08-23,2018-02-02,8510,-
BR027865460,GHCN,ghcn_ftp,Piripiri,161,-4.267,-41.783,,,,,1997-09-07,1997-09-07,1,-
BRM00082445,GHCN,ghcn_ftp,Itaituba,45,-4.267,-55.983,,,,,1991-09-18,1993-06-23,3,-
EC000084279,GHCN,ghcn_ftp,Macara Aeropuerto,430,-4.367,-79.933,,,,,1977-11-08,1984-02-02,1219,-
BRM00082410,GHCN,ghcn_ftp,Benjamin Constant,65,-4.383,-70.033,,,,,1973-01-10,2003-03-07,354,-
PEM00084390,GHCN,ghcn_ftp,Capitan Montes,86,-4.577,-81.254,,,,,1973-01-01,2017-12-14,7348,-
BR028946430,GHCN,ghcn_ftp,Jaguaruana,12,-4.783,-37.767,,,,,1993-07-08,1993-07-08,1,-
BR037041370,GHCN,ghcn_ftp,Teresina (Aeroporto,67,-5.05,-42.817,,,,,1973-01-06,2018-02-02,7709,-
BR037041390,GHCN,ghcn_ftp,Teresina,74,-5.083,-42.817,,,,,1977-11-19,1993-07-08,330,-
BR038062750,GHCN,ghcn_ftp,Macau,6,-5.117,-36.633,,,,,1974-06-16,1990-04-11,6,-
BR037083690,GHCN,ghcn_ftp,Crateus,299,-5.167,-40.667,,,,,1977-11-19,1997-07-20,231,-
BR038014410,GHCN,ghcn_ftp,Quixeramobim,212,-5.2,-39.3,,,,,1974-06-30,1993-07-08,312,-
PEM00084401,GHCN,ghcn_ftp,Capitan Fap Guillermo Concha,35,-5.206,-80.616,,,,,1963-01-03,2018-02-02,14268,-
BRM00082562,GHCN,ghcn_ftp,Maraba,109,-5.369,-49.138,,,,,1973-08-17,2017-07-03,4634,-
BR036190520,GHCN,ghcn_ftp,Barra Do Corda,153,-5.5,-45.267,,,,,1974-06-28,1994-09-25,318,-
BR036150060,GHCN,ghcn_ftp,Imperatriz,123,-5.533,-47.5,,,,,1986-07-01,1997-09-30,923,-
BR038192160,GHCN,ghcn_ftp,Ceara-Mirim,61,-5.65,-35.417,,,,,1978-04-20,1991-03-14,34,-
BR038196570,GHCN,ghcn_ftp,Natal,45,-5.767,-35.2,,,,,1992-05-02,1996-09-09,2,-
BRM00082533,GHCN,ghcn_ftp,Manicore,53,-5.811,-61.278,,,,,1974-06-03,2018-01-31,1528,-
PEM00084425,GHCN,ghcn_ftp,Moises Benzaquen Rengifo,179,-5.894,-76.118,,,,,1963-01-03,2018-02-02,9086,-
PE000084444,GHCN,ghcn_ftp,Chachapoyas,2540,-6.2,-77.85,,,,,1963-01-03,2003-09-03,6783,-
BR038217420,GHCN,ghcn_ftp,Iguatu,217,-6.367,-39.3,,,,,1991-09-09,2001-11-07,5,-
PE000084455,GHCN,ghcn_ftp,Tarapoto,282,-6.5,-76.367,,,,,1963-01-03,2018-02-02,12844,-
BR037335980,GHCN,ghcn_ftp,Floriano,127,-6.767,-43.017,,,,,1974-06-21,2002-06-10,445,-
PEM00084452,GHCN,ghcn_ftp,Capt Jose A  Quinones Gonzale,30,-6.787,-79.828,,,,,1963-01-03,2018-02-02,14017,-
BRM00082791,GHCN,ghcn_ftp,Patos,249,-7.017,-37.267,,,,,1991-09-09,1997-06-12,3,-
BR039402250,GHCN,ghcn_ftp,Joao Pessoa,66,-7.1,-34.867,,,,,1973-07-06,2001-12-31,696,-
PEM00084472,GHCN,ghcn_ftp,Gen Fap Armando Revoredo Igle,2676,-7.139,-78.489,,,,,1963-01-05,2018-02-02,10450,-
PEM00084474,GHCN,ghcn_ftp,Juanjui,350,-7.169,-76.729,,,,,1963-01-03,2012-09-21,6663,-
BR038484280,GHCN,ghcn_ftp,Campina Grande,502,-7.217,-35.883,,,,,1973-10-03,2018-02-02,3637,-
BRM00082723,GHCN,ghcn_ftp,Labrea,60,-7.25,-64.833,,,,,1974-08-03,2003-03-07,85,-
BR038416420,GHCN,ghcn_ftp,Barbalha,409,-7.317,-39.3,,,,,1974-06-29,1988-04-08,295,-
BR000747000,GHCN,ghcn_ftp,Carolina (Aeroporto,172,-7.317,-47.467,,,,,1973-02-18,1986-05-18,366,-
BR036456090,GHCN,ghcn_ftp,Carolina,193,-7.333,-47.467,,,,,1974-06-22,1994-09-25,396,-
BR000082704,GHCN,ghcn_ftp,Cruzeiro Do Sul,194,-7.633,-72.667,,,,,1974-06-22,2016-01-29,2414,-
BR038536790,GHCN,ghcn_ftp,Triunfo,1020,-7.85,-38.133,,,,,2013-07-11,2013-07-11,1,-
BRM00082900,GHCN,ghcn_ftp,Recife,7,-8.05,-34.917,,,,,1974-06-21,1997-03-28,429,-
PEM00084501,GHCN,ghcn_ftp,Capitan Carlos Martinez De Pi,32,-8.081,-79.109,,,,,1963-01-03,2018-02-02,14498,-
BR037672730,GHCN,ghcn_ftp,Paulistana,375,-8.132,-41.133,,,,,1996-09-09,1996-09-09,1,-
BR000082861,GHCN,ghcn_ftp,Conceicao Do Araguaia,-1000,-8.25,-49.28,,,,,1973-11-18,2018-02-02,4799,-
BR037657520,GHCN,ghcn_ftp,S.Joao Do Piaui,235,-8.35,-42.25,,,,,1996-09-09,1996-09-09,1,-
PEM00084515,GHCN,ghcn_ftp,Cap Fap David Abenzur Rengifo,156,-8.378,-74.574,,,,,1963-01-03,2018-02-02,13342,-
BR038710390,GHCN,ghcn_ftp,Cabrobo,341,-8.517,-39.333,,,,,1995-07-27,1996-08-27,2,-
BRM00082825,GHCN,ghcn_ftp,Porto Velho,95,-8.767,-63.917,,,,,1973-01-12,1997-03-28,1412,-
BR038777060,GHCN,ghcn_ftp,Garanhuns,823,-8.883,-36.517,,,,,1996-06-03,2013-07-11,2,-
PEM00084534,GHCN,ghcn_ftp,Tingo Maria,665,-9.133,-75.95,,,,,1963-01-03,2018-01-12,8871,-
PEM00084531,GHCN,ghcn_ftp,Teniente Jaime A De Montreuil,21,-9.15,-78.524,,,,,1964-03-27,2005-08-03,7389,-
BR037835390,GHCN,ghcn_ftp,Caracol,523,-9.283,-43.333,,,,,1996-04-30,1996-04-30,1,-
PEM00084542,GHCN,ghcn_ftp,Comandante Fap German Arias G,2750,-9.347,-77.598,,,,,1973-01-04,2017-12-05,4403,-
BR037897030,GHCN,ghcn_ftp,Petrolina,370,-9.383,-40.483,,,,,1974-01-19,2002-06-10,318,-
BR038837530,GHCN,ghcn_ftp,Paulo Afonso,269,-9.4,-38.217,,,,,1974-06-26,2015-04-27,3613,-
BR038983570,GHCN,ghcn_ftp,Maceio (Aeroporto),118,-9.517,-35.783,,,,,1973-01-07,2018-02-01,7639,-
BR037953910,GHCN,ghcn_ftp,Remanso,401,-9.633,-42.1,,,,,1991-11-20,1991-11-20,1,-
BR000956000,GHCN,ghcn_ftp,Alta Floresta (Aero,289,-9.867,-56.1,,,,,1988-06-02,2018-02-02,6957,-
PEM00084564,GHCN,ghcn_ftp,Alferez Fap D F Fernandini,1850,-9.879,-76.205,,,,,1963-01-03,2018-01-31,8227,-
BRM00082915,GHCN,ghcn_ftp,Rio Branco,160,-9.967,-67.8,,,,,1973-07-30,1994-09-03,677,-
BR001036026,GHCN,ghcn_ftp,Propria,19,-10.2,-36.867,,,,,1998-01-12,1998-01-12,1,-
BR047099650,GHCN,ghcn_ftp,Senhor Do Bonfim,558,-10.467,-40.183,,,,,1991-06-17,1996-08-04,4,-
BRM00083064,GHCN,ghcn_ftp,Porto Nacional,239,-10.717,-48.583,,,,,1977-11-29,1995-02-28,659,-
BR001065002,GHCN,ghcn_ftp,Guayaramerin,130,-10.817,-65.349,,,,,1973-06-18,2011-06-09,6250,-
BR048158910,GHCN,ghcn_ftp,Aracaju,5,-10.917,-37.05,,,,,1973-01-05,2002-06-09,2479,-
BL000085043,GHCN,ghcn_ftp,Riberalta,141,-11.0,-66.117,,,,,1973-05-09,2018-02-02,11364,-
BL000085041,GHCN,ghcn_ftp,Cobija,-1000,-11.03,-68.78,,,,,1973-06-19,2018-02-02,10509,-
BR001138014,GHCN,ghcn_ftp,Cipo,145,-11.083,-38.517,,,,,1992-09-15,1996-03-01,5,-
BR001140016,GHCN,ghcn_ftp,Jacobina,485,-11.183,-40.467,,,,,1994-09-11,1997-03-11,4,-
BR047370760,GHCN,ghcn_ftp,Morro Do Chapeu,1005,-11.217,-41.217,,,,,1995-01-10,1997-03-11,2,-
BR047266270,GHCN,ghcn_ftp,Irece,747,-11.3,-41.867,,,,,1974-08-08,1996-10-15,275,-
PEM00084628,GHCN,ghcn_ftp,Jorge Chavez Intl,34,-12.022,-77.114,,,,,1963-01-03,2015-11-18,12113,-
BR001248000,GHCN,ghcn_ftp,Peixe,250,-12.05,-48.533,,,,,1990-02-14,1996-08-26,10,-
BR047403040,GHCN,ghcn_ftp,Barreiras,439,-12.15,-45.0,,,,,1974-06-30,1995-08-10,793,-
BRM00083264,GHCN,ghcn_ftp,Gleba Celeste,415,-12.2,-56.5,,,,,1974-06-22,1992-08-27,363,-
BRM00083235,GHCN,ghcn_ftp,Taguatinga,604,-12.4,-46.433,,,,,1995-02-28,1996-08-26,2,-
BR047571250,GHCN,ghcn_ftp,Lencois,439,-12.567,-41.383,,,,,1974-06-19,1999-03-10,369,-
PEM00084658,GHCN,ghcn_ftp,Padre Aldamiz,201,-12.614,-69.229,,,,,1963-01-03,2018-02-02,12250,-
BRM00083208,GHCN,ghcn_ftp,Vilhena,615,-12.694,-60.098,,,,,1973-01-30,2018-02-02,7998,-
BR048620980,GHCN,ghcn_ftp,Salvador,51,-13.017,-38.517,,,,,1974-06-16,1996-03-01,439,-
BLM00085104,GHCN,ghcn_ftp,San Joaquin,140,-13.067,-64.667,,,,,1973-12-03,2018-02-02,8644,-
PEM00084673,GHCN,ghcn_ftp,Coronel Fap Alfredo Mendivil,2718,-13.155,-74.204,,,,,1967-03-27,2018-02-02,10276,-
BR047635180,GHCN,ghcn_ftp,Bom Jesus Da Lapa,443,-13.267,-43.417,,,,,1974-06-20,2018-02-02,2276,-
BLM00085109,GHCN,ghcn_ftp,San Ramon,140,-13.3,-64.7,,,,,1984-05-30,2018-02-02,6428,-
BL000085114,GHCN,ghcn_ftp,Magdalena,140,-13.333,-64.117,,,,,1973-06-19,2018-02-01,10792,-
PEM00084686,GHCN,ghcn_ftp,Teniente Alejandro Velasco As,3310,-13.536,-71.939,,,,,1963-01-03,2018-02-02,13763,-
PEM00084691,GHCN,ghcn_ftp,Pisco Intl,12,-13.745,-76.22,,,,,1963-01-03,2018-02-02,13023,-
BLM00085123,GHCN,ghcn_ftp,Santa Ana Del Yacuma,144,-13.762,-65.435,,,,,1987-01-02,2018-02-01,8416,-
BLM00085139,GHCN,ghcn_ftp,Santa Rosa,225,-14.067,-66.783,,,,,2011-12-01,2018-02-02,1585,-
BRM00083332,GHCN,ghcn_ftp,Posse,826,-14.1,-46.367,,,,,1990-04-22,1996-10-27,14,-
BR047826470,GHCN,ghcn_ftp,Carinhanha,556,-14.167,-43.917,,,,,1993-08-21,1995-06-10,4,-
BLM00085140,GHCN,ghcn_ftp,Reyes,280,-14.3,-67.367,,,,,1973-10-26,2018-02-02,9878,-
BRM00083309,GHCN,ghcn_ftp,Diamantino,286,-14.4,-56.45,,,,,1974-06-08,1991-01-17,351,-
BL000085141,GHCN,ghcn_ftp,Rurrenabaque,-1000,-14.47,-67.57,,,,,1973-07-13,2018-02-02,11579,-
BR001452000,GHCN,ghcn_ftp,Nova Xavantina,315,-14.7,-52.35,,,,,1973-09-22,2013-07-11,11,-
BLM00085151,GHCN,ghcn_ftp,Apolo,1415,-14.733,-68.417,,,,,1973-06-13,2008-09-10,3890,-
BR048916940,GHCN,ghcn_ftp,Ilheus,60,-14.8,-39.067,,,,,1973-03-02,1985-04-03,1842,-
BLM00085154,GHCN,ghcn_ftp,Tte Av Jorge Henrich Arauz,155,-14.819,-64.918,,,,,1973-01-03,2018-02-02,11089,-
BRM00083344,GHCN,ghcn_ftp,Vitoria Da Conquista,914,-14.863,-40.863,,,,,1976-03-18,2017-08-16,2224,-
BLM00085152,GHCN,ghcn_ftp,San Borja/Capt Germ,194,-14.867,-66.75,,,,,1973-06-14,2018-02-02,9128,-
BLM00085153,GHCN,ghcn_ftp,San Ignacio De Moxo,241,-14.967,-65.633,,,,,1973-07-08,2018-02-02,5953,-
BR057043270,GHCN,ghcn_ftp,Monte Azul,603,-15.083,-42.75,,,,,1990-01-19,2011-07-28,5,-
PE000084721,GHCN,ghcn_ftp,San Juan,60,-15.383,-75.167,,,,,1958-01-06,1997-04-15,9354,-
BR001544031,GHCN,ghcn_ftp,Januaria,474,-15.433,-44.367,,,,,1977-08-12,1997-08-20,182,-
PEM00084735,GHCN,ghcn_ftp,Juliaca,3826,-15.467,-70.158,,,,,1963-01-03,2018-02-02,10221,-
BR000083361,GHCN,ghcn_ftp,Cuiaba,151,-15.55,-56.117,,,,,1973-02-23,1995-06-03,777,-
BR001546001,GHCN,ghcn_ftp,Buritis,600,-15.617,-46.417,,,,,1997-06-12,1997-06-12,1,-
BR001538000,GHCN,ghcn_ftp,Canavieiras,5,-15.667,-38.95,,,,,1992-09-20,2000-09-14,6,-
BLM00085175,GHCN,ghcn_ftp,Ascencion Guarayos,247,-15.717,-63.1,,,,,1980-04-16,2017-02-11,4690,-
BR001543013,GHCN,ghcn_ftp,Janauba,516,-15.783,-43.3,,,,,1997-08-20,1997-08-20,1,-
BRM00083377,GHCN,ghcn_ftp,Brasilia,1159,-15.783,-47.933,,,,,1974-07-29,2000-03-08,522,-
BRM00083358,GHCN,ghcn_ftp,Poxoreo (Poxoreu),450,-15.833,-54.383,,,,,1979-03-16,2004-09-02,259,-
BR001548003,GHCN,ghcn_ftp,Pirenopolis,730,-15.85,-48.967,,,,,1990-02-14,2001-10-09,12,-
BR001657003,GHCN,ghcn_ftp,Caceres,118,-16.05,-57.683,,,,,1977-11-19,2003-09-17,373,-
BLM00085196,GHCN,ghcn_ftp,Concepcion,497,-16.25,-62.1,,,,,1958-05-01,2017-12-08,7169,-
BLM00085195,GHCN,ghcn_ftp,San Javier,520,-16.267,-62.467,,,,,1977-06-20,2017-02-11,3907,-
PE000084752,GHCN,ghcn_ftp,Arequipa,2520,-16.332,-71.567,,,,,1948-02-29,2018-02-02,14166,-
BLM00085210,GHCN,ghcn_ftp,San Matias,124,-16.333,-58.383,,,,,1987-05-02,2017-02-11,3465,-
BLM00085207,GHCN,ghcn_ftp,San Ignacio Velasco,413,-16.367,-60.95,,,,,1958-07-04,2017-12-08,6797,-
BLM00085201,GHCN,ghcn_ftp,El Alto Intl,4062,-16.513,-68.192,,,,,1952-01-03,2018-02-02,14668,-
BRM00083423,GHCN,ghcn_ftp,Goiania,741,-16.667,-49.25,,,,,1990-02-14,1997-03-28,12,-
BR057324290,GHCN,ghcn_ftp,Montes Claros,668,-16.717,-43.867,,,,,1973-01-10,2018-02-01,2878,-
BR001746008,GHCN,ghcn_ftp,Paracatu,711,-17.217,-46.867,,,,,1989-12-09,2009-01-23,10,-
BL000085223,GHCN,ghcn_ftp,Cochabamba,-1000,-17.42,-66.18,,,,,1973-01-02,2017-12-18,9743,-
BL000085230,GHCN,ghcn_ftp,Charana,-1000,-17.58,-69.6,,,,,1958-05-03,2008-01-28,4095,-
BLM00085244,GHCN,ghcn_ftp,Viru Viru Intl,373,-17.645,-63.135,,,,,1984-07-08,2017-12-08,5876,-
BR001748003,GHCN,ghcn_ftp,Ipameri,752,-17.717,-48.167,,,,,1991-08-13,1997-03-28,4,-
BR058514530,GHCN,ghcn_ftp,Caravelas,3,-17.733,-39.25,,,,,1974-04-04,2013-07-10,329,-
BLM00085245,GHCN,ghcn_ftp,El Trompillo,418,-17.812,-63.171,,,,,1958-05-02,2017-12-08,8865,-
BLM00085247,GHCN,ghcn_ftp,San Jose,284,-17.833,-60.75,,,,,1958-05-01,2017-12-08,5744,-
BRM00083492,GHCN,ghcn_ftp,Teofilo Otoni,356,-17.85,-41.517,,,,,1977-08-08,2003-06-06,276,-
BLM00085242,GHCN,ghcn_ftp,Juan Mendoza,3702,-17.963,-67.076,,,,,1958-05-01,2018-02-02,9934,-
PEM00084782,GHCN,ghcn_ftp,Coronel Carlos Ciriani Santa,469,-18.053,-70.276,,,,,1963-01-03,2018-02-02,13530,-
BLM00085268,GHCN,ghcn_ftp,Robore (Civ/Mil),284,-18.317,-59.75,,,,,1958-05-01,2017-12-08,7839,-
CI000085406,GHCN,ghcn_ftp,Arica,58,-18.35,-70.333,,,,,1957-07-01,2018-02-02,11819,-
BLM00085264,GHCN,ghcn_ftp,Vallegrande,1998,-18.467,-64.1,,,,,1989-09-01,2017-02-11,3097,-
BR001846000,GHCN,ghcn_ftp,Patos De Minas,940,-18.6,-46.517,,,,,1989-12-27,2003-06-06,6,-
BR001841005,GHCN,ghcn_ftp,Governador Valadare,277,-18.85,-41.933,,,,,1990-04-25,1990-04-25,1,-
BLM00085289,GHCN,ghcn_ftp,Tte De Av Salvador Ogaya G,134,-18.975,-57.821,,,,,1958-05-01,2017-12-08,6752,-
BLM00085283,GHCN,ghcn_ftp,Juana Azurduy De Padilla,2904,-19.007,-65.289,,,,,1973-06-13,2016-03-31,8906,-
BR001943002,GHCN,ghcn_ftp,Conceicao Do Mato D,675,-19.033,-43.433,,,,,1990-04-20,1992-06-16,2,-
BR001957002,GHCN,ghcn_ftp,Corumba,141,-19.083,-57.5,,,,,1974-06-08,2008-09-28,3070,-
BR001944016,GHCN,ghcn_ftp,Sete Lagoas,732,-19.467,-44.25,,,,,1992-06-16,1996-08-20,8,-
BR001941020,GHCN,ghcn_ftp,Aimores,83,-19.483,-41.067,,,,,1989-12-09,1995-11-23,8,-
PAM00086011,GHCN,ghcn_ftp,Adrian Jara,150,-19.533,-59.367,,,,,1974-06-19,2013-02-22,7107,-
BLM00085293,GHCN,ghcn_ftp,Capitan Nicolas Rojas,3936,-19.543,-65.724,,,,,1977-05-14,2018-01-01,4858,-
BR001946002,GHCN,ghcn_ftp,Araxa,1004,-19.567,-46.933,,,,,1989-12-09,2003-06-06,10,-
BRM00083587,GHCN,ghcn_ftp,Tancredo Neves Intl,828,-19.634,-43.969,,,,,1977-06-13,2001-12-31,1445,-
BR001943012,GHCN,ghcn_ftp,Lagoa Santa Airport,837,-19.65,-43.883,,,,,1974-02-22,1980-07-07,10,-
BRM00083565,GHCN,ghcn_ftp,Paranaiba,331,-19.7,-51.183,,,,,1990-11-27,1990-12-09,2,-
BLM00085312,GHCN,ghcn_ftp,Monteagudo,992,-19.783,-63.917,,,,,1990-10-19,2014-07-03,847,-
BRM00083592,GHCN,ghcn_ftp,Caratinga,609,-19.8,-42.15,,,,,1977-10-24,2003-06-06,374,-
BRM00083566,GHCN,ghcn_ftp,Belo Horizonte (Confins) *,0,-19.833,-43.917,,,,,2002-01-04,2018-02-02,3961,-
BR002045001,GHCN,ghcn_ftp,Bambui,661,-20.0,-45.983,,,,,1993-11-26,2003-06-06,5,-
BLM00085315,GHCN,ghcn_ftp,Camiri,792,-20.05,-63.567,,,,,1973-01-30,2017-12-08,7763,-
PA000086033,GHCN,ghcn_ftp,Bahia Negra,96,-20.23,-58.167,,,,,1973-01-23,2013-06-11,3494,-
BRM00083648,GHCN,ghcn_ftp,Vitoria,36,-20.317,-40.333,,,,,1977-12-17,1988-10-31,638,-
BR00B6-0360,GHCN,ghcn_ftp,Votuporanga,503,-20.417,-49.983,,,,,1990-06-01,2003-06-06,3,-
BRM00083611,GHCN,ghcn_ftp,Campo Grande,530,-20.45,-54.617,,,,,1977-11-19,1996-09-04,391,-
CIM00085418,GHCN,ghcn_ftp,Diego Aracena Intl,47,-20.535,-70.181,,,,,1973-01-21,2018-02-02,9839,-
BR002047016,GHCN,ghcn_ftp,Franca,1026,-20.55,-47.433,,,,,1973-05-27,1999-02-13,551,-
BRM00083618,GHCN,ghcn_ftp,Tres Lagoas,313,-20.783,-51.7,,,,,1977-08-09,1995-11-23,338,-
BR00C5-0040,GHCN,ghcn_ftp,Catanduva,536,-21.133,-48.967,,,,,1990-06-01,2003-06-06,9,-
BR002141004,GHCN,ghcn_ftp,Itaperuna,123,-21.2,-41.883,,,,,2013-07-10,2013-07-10,1,-
BR002144014,GHCN,ghcn_ftp,Lavras,919,-21.233,-45.0,,,,,1977-08-09,1996-03-12,283,-
BLM00085345,GHCN,ghcn_ftp,Tcnl Rafael Pabon,398,-21.255,-63.406,,,,,1980-05-01,2017-12-18,5551,-
BR00C4-0170,GHCN,ghcn_ftp,Sao Simao,617,-21.483,-47.55,,,,,1990-06-01,1996-12-22,4,-
BL000085364,GHCN,ghcn_ftp,Tarija,1854,-21.55,-64.7,,,,,1973-06-17,2017-12-18,7875,-
BR002145002,GHCN,ghcn_ftp,Machado,873,-21.667,-45.917,,,,,1990-11-18,1996-05-30,8,-
BRM00083698,GHCN,ghcn_ftp,Bartolomeu Lisandro,17,-21.698,-41.302,,,,,1973-01-07,2018-02-02,3621,-
BR002143012,GHCN,ghcn_ftp,Juiz De Fora,911,-21.767,-43.35,,,,,1977-10-24,2017-08-07,3735,-
BL000085365,GHCN,ghcn_ftp,Yacuiba,-1000,-21.95,-63.65,,,,,1973-01-29,2017-12-18,8035,-
BR00C4-0630,GHCN,ghcn_ftp,Pirassununga,600,-21.983,-47.333,,,,,1973-07-16,2007-04-02,3359,-
BR00D4-0750,GHCN,ghcn_ftp,Sao Carlos,856,-22.017,-47.883,,,,,1995-06-20,1995-06-20,1,-
PA000086068,GHCN,ghcn_ftp,Mariscal Estigarrib,172,-22.017,-60.6,,,,,1975-06-20,2018-02-02,8776,-
BR002241001,GHCN,ghcn_ftp,Sao Tome,4,-22.05,-41.05,,,,,1981-07-17,2008-07-18,43,-
BR002245081,GHCN,ghcn_ftp,Sao Lourenco,900,-22.1,-45.017,,,,,1990-07-25,1996-03-12,5,-
AR000087007,GHCN,ghcn_ftp,La Quiaca Observato,3479,-22.1,-65.6,,,,,1956-04-01,2018-02-02,20187,-
BR00D8-0390,GHCN,ghcn_ftp,Presidente Prudente,450,-22.117,-51.383,,,,,1973-12-28,2005-09-03,1660,-
PA000086086,GHCN,ghcn_ftp,Puerto Casado,87,-22.283,-57.933,,,,,1974-12-04,2018-02-02,6599,-
BR00D6-0010,GHCN,ghcn_ftp,Bauru,617,-22.317,-49.117,,,,,1973-01-05,2007-04-17,3079,-
BRM00083704,GHCN,ghcn_ftp,Ivinhema,369,-22.317,-53.933,,,,,1995-03-02,2003-06-06,3,-
BR002244041,GHCN,ghcn_ftp,Volta Redonda,374,-22.483,-44.083,,,,,1974-06-07,1975-02-26,3,-
BR002244032,GHCN,ghcn_ftp,Resende,440,-22.483,-44.467,,,,,1977-12-17,1988-10-31,341,-
BRM00083702,GHCN,ghcn_ftp,Ponta Pora,650,-22.533,-55.7,,,,,1977-11-19,1992-06-09,305,-
PAM00086065,GHCN,ghcn_ftp,Pelayo Prat Gill,220,-22.55,-61.55,,,,,1973-01-23,2014-06-22,5830,-
PAM00086097,GHCN,ghcn_ftp,Pedro Juan Caballero,652,-22.6,-55.833,,,,,1973-01-23,2018-02-02,6971,-
ARM00087022,GHCN,ghcn_ftp,General Enrique Mosconi Tarta,449,-22.62,-63.794,,,,,1973-01-02,2018-02-02,9525,-
BLM00085394,GHCN,ghcn_ftp,Bermejo,381,-22.767,-64.317,,,,,1987-08-17,2009-02-11,838,-
BR002245032,GHCN,ghcn_ftp,Guaratingueta,537,-22.783,-45.2,,,,,1982-09-12,2007-10-05,3582,-
BRM00083746,GHCN,ghcn_ftp,Galeao Antonio Carlos Jobim,9,-22.809,-43.244,,,,,1973-08-17,2018-02-02,3145,-
BRW00052401,GHCN,ghcn_ftp,Santa Cruz,3,-22.9167,-43.7833,,,,,1945-05-01,1945-08-27,116,-
BR000083743,GHCN,ghcn_ftp,Rio De Janeiro,5,-22.917,-43.167,,,,,1973-01-09,1988-10-31,1369,-
BR00E4-1230,GHCN,ghcn_ftp,Campinas (Aeroporto,661,-23.0,-47.133,,,,,1973-01-02,2007-04-17,3691,-
BR00E2-0220,GHCN,ghcn_ftp,Taubate,577,-23.017,-45.567,,,,,1995-06-20,1996-09-04,2,-
ARM00087016,GHCN,ghcn_ftp,Oran,356,-23.153,-64.329,,,,,1961-07-23,2018-02-02,9694,-
BR002351003,GHCN,ghcn_ftp,Londrina (Aeroporto,569,-23.333,-51.133,,,,,1973-10-02,2007-04-17,4100,-
BRM00083766,GHCN,ghcn_ftp,Londrina,566,-23.383,-51.183,,,,,1977-08-09,1993-02-09,370,-
PA000086134,GHCN,ghcn_ftp,Concepcion,74,-23.43,-57.417,,,,,1973-06-22,2018-02-02,11376,-
BR00E3-1520,GHCN,ghcn_ftp,Sao Paulo/Cumbica,4,-23.433,-46.467,,,,,1977-12-24,2007-04-17,11,-
CI000085442,GHCN,ghcn_ftp,Antofagasta,140,-23.433,-70.45,,,,,1948-02-29,2018-02-02,13365,-
BR00E3-0070,GHCN,ghcn_ftp,Sao Paulo,792,-23.5,-46.617,,,,,1973-02-19,1996-09-04,401,-
PAM00086128,GHCN,ghcn_ftp,Pozo Colorado,99,-23.5,-58.783,,,,,2001-09-01,2018-02-02,4201,-
BR00E3-0520,GHCN,ghcn_ftp,Sao Paulo (Aeroport,802,-23.617,-46.65,,,,,1973-10-26,2018-02-02,4644,-
PAM00086210,GHCN,ghcn_ftp,Saltos Del Guaira,265,-24.033,-54.35,,,,,1980-03-27,2018-02-02,6057,-
BR002452048,GHCN,ghcn_ftp,Campo Mourao,616,-24.05,-52.367,,,,,1990-12-23,1997-09-02,7,-
PAM00086185,GHCN,ghcn_ftp,San Pedro,80,-24.067,-57.083,,,,,2001-09-17,2018-02-02,3926,-
BR002454001,GHCN,ghcn_ftp,Guaira,230,-24.083,-54.25,,,,,1991-11-07,1993-03-11,3,-
AR000087065,GHCN,ghcn_ftp,Rivadavia,205,-24.167,-62.9,,,,,1956-04-01,1996-10-28,13367,-
ARM00087046,GHCN,ghcn_ftp,Jujuy,920,-24.393,-65.098,,,,,1973-01-01,2018-02-02,11843,-
PAM00086192,GHCN,ghcn_ftp,San Estanislao,192,-24.667,-56.433,,,,,1975-04-10,2018-02-02,6397,-
AR000087078,GHCN,ghcn_ftp,Las Lomitas,130,-24.7,-60.583,,,,,1956-04-01,2011-09-08,18076,-
PAM00086170,GHCN,ghcn_ftp,Gral. Bruguez,86,-24.75,-58.833,,,,,2001-09-17,2018-02-02,4018,-
BR002450000,GHCN,ghcn_ftp,Castro,1009,-24.783,-50.0,,,,,1990-03-11,1997-09-02,4,-
AR000870470,GHCN,ghcn_ftp,Salta Aero,1246,-24.85,-65.483,,,,,1956-02-01,2018-02-02,21692,-
PAM00086218,GHCN,ghcn_ftp,Silvio Pettirossi Intl,89,-25.24,-57.519,,,,,1973-01-05,2018-01-31,10272,-
BR002549075,GHCN,ghcn_ftp,Curitiba,932,-25.417,-49.267,,,,,1973-02-06,2002-06-27,1740,-
PAM00086246,GHCN,ghcn_ftp,Aeropuerto Int. Guarani,236,-25.45,-54.833,,,,,2001-09-17,2013-11-01,3628,-
BRM00083836,GHCN,ghcn_ftp,Irati,837,-25.467,-50.633,,,,,1977-12-17,1997-09-02,379,-
PAM00086234,GHCN,ghcn_ftp,Coronel Oviedo,163,-25.467,-56.4,,,,,2002-04-07,2018-02-02,2548,-
BR002548005,GHCN,ghcn_ftp,Paranagua,5,-25.517,-48.517,,,,,1973-11-26,2001-03-21,998,-
PA000086248,GHCN,ghcn_ftp,Ciudad Del Este,196,-25.533,-54.6,,,,,1973-01-09,2007-04-19,3665,-
BRM00083827,GHCN,ghcn_ftp,Cataratas Intl,240,-25.596,-54.487,,,,,1973-01-05,2018-01-30,5675,-
PAM00086221,GHCN,ghcn_ftp,Paraguari,116,-25.633,-57.133,,,,,2008-07-23,2018-02-02,3015,-
BR002554002,GHCN,ghcn_ftp,Iguazu Aero,279,-25.733,-54.467,,,,,1962-07-10,2018-02-02,11090,-
PAM00086233,GHCN,ghcn_ftp,Villarrica,161,-25.767,-56.433,,,,,1973-01-06,2018-02-02,11119,-
PAM00086268,GHCN,ghcn_ftp,Caazapa,140,-26.183,-56.367,,,,,2000-04-13,2018-02-02,4031,-
ARM00087162,GHCN,ghcn_ftp,Formosa,59,-26.213,-58.228,,,,,1973-01-01,2018-02-02,11301,-
PAM00086260,GHCN,ghcn_ftp,San Juan Bautista,126,-26.667,-57.15,,,,,1973-01-05,2018-02-01,8894,-
ARM00087148,GHCN,ghcn_ftp,Presidencia Roque Saenz Pena,93,-26.733,-60.483,,,,,2001-09-18,2018-02-02,3754,-
ARM00087121,GHCN,ghcn_ftp,Teniente Benjamin Matienzo,456,-26.841,-65.105,,,,,1981-11-24,2018-02-01,9613,-
PAM00086255,GHCN,ghcn_ftp,Pilar,56,-26.85,-58.317,,,,,1973-01-17,2018-02-02,7181,-
BR002649005,GHCN,ghcn_ftp,Indaial,68,-26.9,-49.217,,,,,1993-01-04,1997-09-02,4,-
PAM00086285,GHCN,ghcn_ftp,Capitan Meza,248,-26.933,-55.2,,,,,2000-04-12,2018-02-02,4593,-
BR002752004,GHCN,ghcn_ftp,Chapeco,679,-27.117,-52.617,,,,,1996-01-15,1997-09-02,4,-
CI000085469,GHCN,ghcn_ftp,Isla De Pascua,69,-27.167,-109.433,,,,,1965-05-03,2018-01-06,11069,-
BRM00083881,GHCN,ghcn_ftp,Irai,247,-27.183,-53.233,,,,,1977-10-24,2004-04-23,372,-
CIM00085470,GHCN,ghcn_ftp,Chamonate,298,-27.296,-70.414,,,,,1964-07-20,2005-01-31,8032,-
PA000086297,GHCN,ghcn_ftp,Encarnacion,91,-27.3,-55.9,,,,,1973-01-05,2018-02-01,9880,-
ARM00087178,GHCN,ghcn_ftp,Posadas,131,-27.386,-55.971,,,,,1960-01-03,2018-02-01,13252,-
ARM00087166,GHCN,ghcn_ftp,Corrientes,62,-27.446,-58.762,,,,,1973-01-01,2018-02-02,10142,-
AR000087155,GHCN,ghcn_ftp,Resistencia Aero,53,-27.45,-59.05,,,,,1960-01-04,2018-02-02,19147,-
BRM00083897,GHCN,ghcn_ftp,Florianopolis,2,-27.583,-48.567,,,,,1977-08-12,1997-09-02,408,-
AR000087129,GHCN,ghcn_ftp,Santiago Del Estero,200,-27.767,-64.3,,,,,1956-02-01,2018-02-02,22099,-
BR002849003,GHCN,ghcn_ftp,S. Joaquim,1402,-28.283,-49.917,,,,,1993-01-04,1997-04-08,5,-
ARM00087222,GHCN,ghcn_ftp,Catamarca,464,-28.596,-65.752,,,,,1973-07-12,2018-02-02,12123,-
AR000087270,GHCN,ghcn_ftp,Reconquista Aero,53,-29.183,-59.7,,,,,1961-01-01,2018-02-02,19651,-
ARM00087213,GHCN,ghcn_ftp,Chilecito Aero,945,-29.233,-67.433,,,,,1986-12-18,2017-03-02,783,-
AR000087217,GHCN,ghcn_ftp,La Rioja Aero.,438,-29.383,-66.817,,,,,1956-02-01,2018-02-02,21473,-
ARM00087289,GHCN,ghcn_ftp,Paso De Los Libres,70,-29.689,-57.152,,,,,1973-01-01,2018-02-02,11690,-
BR002957005,GHCN,ghcn_ftp,Uruguaiana (Aeropor,78,-29.783,-57.033,,,,,1973-01-01,2014-02-04,3319,-
AR000000008,GHCN,ghcn_ftp,Curuzu Cuatia Aero,70,-29.783,-57.983,,,,,1973-01-01,1997-01-01,4353,-
AR000087257,GHCN,ghcn_ftp,Ceres Aero,88,-29.883,-61.95,,,,,1956-04-01,2018-02-02,21694,-
ARM00087244,GHCN,ghcn_ftp,Villa Maria Del Rio,341,-29.9,-63.683,,,,,1973-01-10,2018-02-02,6725,-
CI000085488,GHCN,ghcn_ftp,La Serena,146,-29.917,-71.2,,,,,1957-07-01,2018-02-02,14100,-
BRM00083967,GHCN,ghcn_ftp,Canoas,8,-29.946,-51.144,,,,,1977-10-02,2002-06-27,1414,-
AR000873050,GHCN,ghcn_ftp,Jachal,1175,-30.25,-68.75,,,,,1956-10-01,2004-05-31,13492,-
UY000086315,GHCN,ghcn_ftp,Bella Union,53,-30.267,-57.583,,,,,1982-08-12,2010-04-28,6347,-
AR000000011,GHCN,ghcn_ftp,Monte Caseros Aero,53,-30.267,-57.65,,,,,1967-04-15,2018-02-02,12012,-
ARM00087320,GHCN,ghcn_ftp,Chamical Aero,461,-30.367,-66.283,,,,,1973-06-18,2018-02-02,9735,-
UY000086330,GHCN,ghcn_ftp,Est.Met.Artigas,121,-30.4,-56.52,,,,,1976-07-14,2016-12-12,11057,-
UYM00086350,GHCN,ghcn_ftp,Presidente General Don Oscar,223,-30.975,-55.476,,,,,1976-01-25,2018-02-02,10183,-
ARM00087395,GHCN,ghcn_ftp,Comodoro Pierrestegui,34,-31.297,-57.997,,,,,1973-01-01,2018-02-01,12205,-
AR000087344,GHCN,ghcn_ftp,Cordoba Aero,489,-31.317,-64.217,,,,,1956-02-02,2018-02-02,21305,-
BRM00083980,GHCN,ghcn_ftp,Bage,242,-31.333,-54.1,,,,,1977-06-08,1999-08-03,414,-
ARM00087322,GHCN,ghcn_ftp,Chepes,658,-31.333,-66.6,,,,,1973-01-03,1992-06-20,2847,-
ARM00087345,GHCN,ghcn_ftp,Cordoba Observatorio,426,-31.4,-64.183,,,,,2017-03-02,2017-03-02,1,-
UY000086360,GHCN,ghcn_ftp,Salto,33,-31.433,-57.967,,,,,1957-06-30,2017-01-06,11833,-
ARM00087311,GHCN,ghcn_ftp,San Juan,597,-31.571,-68.418,,,,,1973-01-01,2018-02-02,12878,-
ARM00087349,GHCN,ghcn_ftp,Pilar Observatorio,338,-31.667,-63.883,,,,,1973-02-13,2018-02-02,9194,-
UY000001405,GHCN,ghcn_ftp,Tacuarembo,134,-31.7,-55.983,,,,,1979-07-21,2016-04-19,6185,-
AR000087374,GHCN,ghcn_ftp,Parana Aero,74,-31.783,-60.483,,,,,1956-02-01,2018-02-02,21788,-
ARM00087328,GHCN,ghcn_ftp,Villa Dolores,584,-31.945,-65.146,,,,,1973-01-01,2018-02-02,11043,-
BR003252024,GHCN,ghcn_ftp,Rio Grande,2,-32.017,-52.083,,,,,1977-06-08,2013-07-11,517,-
UY000086430,GHCN,ghcn_ftp,Paysandu,61,-32.333,-58.033,,,,,1935-01-01,2016-07-25,24550,-
UY000001709,GHCN,ghcn_ftp,Melo,100,-32.35,-54.183,,,,,1976-12-01,2016-11-20,9432,-
UY000864400,GHCN,ghcn_ftp,Melo,100,-32.366,-54.183,,,,,1996-01-01,2003-12-31,2887,-
UY000001856,GHCN,ghcn_ftp,Young,80,-32.683,-57.633,,,,,1978-09-06,2014-10-31,7784,-
ARM00087467,GHCN,ghcn_ftp,Marcos Juarez,110,-32.684,-62.158,,,,,1973-01-01,2018-02-02,12308,-
CI000085543,GHCN,ghcn_ftp,Quintero,5,-32.783,-71.517,,,,,1964-10-11,1999-07-03,2786,-
UY000001915,GHCN,ghcn_ftp,Paso De Los Toros,75,-32.8,-56.517,,,,,1976-06-30,2017-01-04,11472,-
AR000087418,GHCN,ghcn_ftp,Mendoza Aero,704,-32.833,-68.783,,,,,1959-10-28,2018-02-02,20490,-
ARM00087420,GHCN,ghcn_ftp,Mendoza Observatorio,827,-32.883,-68.85,,,,,1973-01-05,2017-03-02,180,-
ARM00087480,GHCN,ghcn_ftp,Rosario,26,-32.904,-60.785,,,,,1965-03-08,2018-02-02,12198,-
ARM00087497,GHCN,ghcn_ftp,Gualeguaychu,23,-33.01,-58.613,,,,,1965-03-27,2018-02-02,13301,-
ARM00087416,GHCN,ghcn_ftp,San Martin,653,-33.083,-68.417,,,,,1973-01-06,2018-02-02,10334,-
ARM00087453,GHCN,ghcn_ftp,Rio Cuarto Area De Material,421,-33.085,-64.261,,,,,1973-01-02,2018-02-02,11944,-
UYM00086500,GHCN,ghcn_ftp,Treinta Y Tres,46,-33.217,-54.383,,,,,1967-10-24,2017-01-04,8224,-
UY000086490,GHCN,ghcn_ftp,Mercedes,17,-33.25,-58.067,,,,,1931-01-01,2018-02-02,28134,-
ARM00087436,GHCN,ghcn_ftp,San Luis,710,-33.273,-66.356,,,,,1957-06-30,2018-02-02,13002,-
UY000002206,GHCN,ghcn_ftp,Durazno,92,-33.35,-56.5,,,,,1957-07-05,2016-12-10,8783,-
CIM00085574,GHCN,ghcn_ftp,Arturo Merino Benitez Intl,474,-33.393,-70.786,,,,,1973-01-01,2018-02-01,11702,-
CIM00085577,GHCN,ghcn_ftp,Quinta Normal,520,-33.433,-70.683,,,,,2005-09-02,2018-02-02,3597,-
BRM00083997,GHCN,ghcn_ftp,St.Vitoria Do Palmar,24,-33.517,-53.35,,,,,1977-06-08,1997-04-08,632,-
CI000085585,GHCN,ghcn_ftp,Juan Fernandez,30,-33.633,-75.817,,,,,1963-01-06,2018-01-27,11233,-
ARM00087448,GHCN,ghcn_ftp,Villa Reynolds,485,-33.73,-65.387,,,,,1973-01-01,2018-02-02,11004,-
AR000087534,GHCN,ghcn_ftp,Laboulaye Aero,137,-34.133,-63.367,,,,,1950-01-01,2018-02-02,24531,-
UY000086562,GHCN,ghcn_ftp,La Estanzuela (Eele),14,-34.45,-57.85,,,,,1931-01-01,1996-12-31,23996,-
UYM00086560,GHCN,ghcn_ftp,Laguna De Los Patos Intl,21,-34.456,-57.771,,,,,1957-07-01,2017-10-26,10907,-
UY000086565,GHCN,ghcn_ftp,Rocha,18,-34.483,-54.3,,,,,1970-01-01,2018-02-02,16443,-
ARM00087548,GHCN,ghcn_ftp,Junin,80,-34.546,-60.931,,,,,1967-05-05,2018-02-02,13813,-
ARM00087582,GHCN,ghcn_ftp,Aeroparque Jorge Newbery,6,-34.559,-58.416,,,,,1973-01-02,2018-02-02,10545,-
AR000875850,GHCN,ghcn_ftp,Buenos Aires Observ,25,-34.583,-58.483,,,,,1908-09-02,2018-02-02,36670,-
ARM00087509,GHCN,ghcn_ftp,San Rafael,753,-34.588,-68.403,,,,,1973-01-01,2018-02-02,13051,-
ARM00087576,GHCN,ghcn_ftp,Ministro Pistarini,20,-34.822,-58.536,,,,,1957-07-01,2018-02-02,12979,-
UYM00086580,GHCN,ghcn_ftp,Carrasco Intl,32,-34.838,-56.031,,,,,1957-06-30,2018-02-02,9663,-
CI000085629,GHCN,ghcn_ftp,Curico,225,-34.967,-71.233,,,,,1957-09-08,2018-02-02,11620,-
ARM00087593,GHCN,ghcn_ftp,La Plata,22,-34.972,-57.895,,,,,1973-01-01,2018-02-02,9597,-
ARM00087596,GHCN,ghcn_ftp,Punta Indio B.A.,22,-35.367,-57.283,,,,,1957-06-30,2017-03-02,3142,-
ARM00087550,GHCN,ghcn_ftp,Nueve De Julio,76,-35.45,-60.883,,,,,1975-05-26,1996-07-20,1608,-
ARM00087506,GHCN,ghcn_ftp,Malargue,1430,-35.494,-69.574,,,,,1967-07-02,2018-02-02,13188,-
ARM00087532,GHCN,ghcn_ftp,General Pico,140,-35.696,-63.758,,,,,1973-01-01,2018-02-02,7310,-
AR000875440,GHCN,ghcn_ftp,Pehuajo Aero,85,-35.867,-61.9,,,,,1959-01-01,2017-03-02,16023,-
ARM00087563,GHCN,ghcn_ftp,Las Flores,38,-36.067,-59.1,,,,,1975-09-03,2014-07-31,2733,-
ARM00087640,GHCN,ghcn_ftp,Bolivar Aero,94,-36.2,-61.067,,,,,1989-04-06,2017-03-02,4937,-
ARM00087648,GHCN,ghcn_ftp,Dolores Airport,9,-36.35,-57.733,,,,,1973-01-03,2018-02-02,10806,-
AR000087623,GHCN,ghcn_ftp,Santa Rosa Aero,192,-36.567,-64.266,,,,,1951-01-01,2018-02-02,24262,-
CIM00085672,GHCN,ghcn_ftp,General Bernardo O Higgins,151,-36.582,-72.031,,,,,1957-07-01,2018-02-02,5649,-
CIM00085682,GHCN,ghcn_ftp,Carriel Sur Intl,8,-36.773,-73.063,,,,,1973-01-09,2018-02-01,12074,-
ARM00087641,GHCN,ghcn_ftp,Azul Aero,147,-36.833,-59.883,,,,,1997-01-01,2018-02-02,6231,-
ARM00087643,GHCN,ghcn_ftp,Olavarria Aero,166,-36.883,-60.217,,,,,1987-10-03,1997-09-30,1395,-
ARM00087645,GHCN,ghcn_ftp,Tandil,175,-37.237,-59.228,,,,,1973-01-01,2018-02-02,12894,-
ARM00087637,GHCN,ghcn_ftp,Coronel Suarez Aero,233,-37.433,-61.883,,,,,1974-06-18,1997-03-24,2544,-
ARM00087679,GHCN,ghcn_ftp,Pigue Airport,304,-37.6,-62.383,,,,,1973-03-04,1991-06-16,1936,-
AR000087692,GHCN,ghcn_ftp,Mar Del Plata Aero,22,-37.933,-57.583,,,,,1956-02-01,2018-02-02,21813,-
ARM00087688,GHCN,ghcn_ftp,Tres Arroyos,122,-38.387,-60.33,,,,,1973-01-04,2013-07-11,7981,-
AR000877500,GHCN,ghcn_ftp,Bahia Blanca Aero,75,-38.733,-62.167,,,,,1956-02-02,2018-02-02,21595,-
CI000085743,GHCN,ghcn_ftp,Temuco,114,-38.75,-72.633,,,,,1963-01-03,2017-10-08,12220,-
AR000087715,GHCN,ghcn_ftp,Neuquen Aero,273,-38.95,-68.133,,,,,1956-08-01,2018-02-02,21291,-
ARM00087736,GHCN,ghcn_ftp,Rio Colorado,79,-39.017,-64.083,,,,,1973-01-05,1990-08-10,1493,-
CIM00085766,GHCN,ghcn_ftp,Pichoy,18,-39.65,-73.086,,,,,1973-03-14,2018-02-02,10504,-
CIM00085782,GHCN,ghcn_ftp,Osorno,58,-40.6,-73.05,,,,,1973-03-14,2017-02-03,4087,-
ARM00087784,GHCN,ghcn_ftp,San Antonio Oeste Aero,20,-40.783,-65.1,,,,,1968-01-02,2018-02-01,11207,-
ARM00087791,GHCN,ghcn_ftp,Gobernador Castello,6,-40.869,-63.0,,,,,1973-01-02,2018-02-02,12594,-
ARM00087765,GHCN,ghcn_ftp,San Carlos De Bariloche,846,-41.151,-71.158,,,,,1957-07-01,2018-02-02,12408,-
ARM00087774,GHCN,ghcn_ftp,Maquinchao,888,-41.25,-68.733,,,,,1957-09-02,2018-02-02,6798,-
CI000085799,GHCN,ghcn_ftp,Puerto Montt,90,-41.433,-73.1,,,,,1963-08-07,2018-02-02,12155,-
ARM00087800,GHCN,ghcn_ftp,El Bolson,345,-41.943,-71.532,,,,,1995-03-02,2018-02-02,2630,-
ARM00087823,GHCN,ghcn_ftp,P.Madryn Aero,136,-42.733,-65.067,,,,,2017-03-02,2017-03-02,1,-
AR000087803,GHCN,ghcn_ftp,Esquel Aero,799,-42.933,-71.15,,,,,1957-06-30,2018-02-02,19819,-
AR000087828,GHCN,ghcn_ftp,Trelew Aero,43,-43.2,-65.266,,,,,1956-02-02,2018-02-02,22202,-
NZM00093781,GHCN,ghcn_ftp,Christchurch Intl,38,-43.489,172.532,,,,,1960-01-02,2018-02-02,9843,-
ASN00094010,GHCN,ghcn_ftp,Cape Bruny Lighthouse,55,-43.4892,147.145,,,,,1957-01-01,2018-01-03,21680,-
ASN00094041,GHCN,ghcn_ftp,Maatsuyker Island Lighthouse,147,-43.6578,146.271,,,,,1957-01-02,2018-01-03,21483,-
ARM00087814,GHCN,ghcn_ftp,Paso De Indios,460,-43.817,-68.883,,,,,1973-09-22,1997-09-30,2635,-
NZ000939870,GHCN,ghcn_ftp,Chatham Islands Aws,49,-43.95,-176.567,,,,,1956-10-01,2012-03-31,18424,-
NZ000937470,GHCN,ghcn_ftp,Tara Hills,488,-44.517,169.9,,,,,1949-11-01,2005-12-31,19712,-
CIM00085864,GHCN,ghcn_ftp,Teniente Vidal,311,-45.594,-72.106,,,,,1964-08-19,2018-02-01,4522,-
AR000087860,GHCN,ghcn_ftp,Comodoro Rivadavia,58,-45.783,-67.5,,,,,1956-02-01,2018-02-02,21933,-
CI000085874,GHCN,ghcn_ftp,Balmaceda,525,-45.917,-71.7,,,,,1973-01-24,2018-02-02,11020,-
NZ000093844,GHCN,ghcn_ftp,Invercargill Airpor,2,-46.417,168.333,,,,,1948-05-31,2018-02-02,23540,-
FSM00061997,GHCN,ghcn_ftp,Alfred Faure (Iles Crozet),142,-46.433,51.85,,,,,1976-06-06,2018-02-02,6766,-
ARM00087852,GHCN,ghcn_ftp,Perito Moreno Arpt,429,-46.517,-71.017,,,,,1967-07-04,2017-06-16,6571,-
SF000068994,GHCN,ghcn_ftp,Marion Island,21,-46.883,37.867,,,,,1952-01-01,2018-02-02,20644,-
ARM00087896,GHCN,ghcn_ftp,Puerto Deseado,81,-47.735,-65.904,,,,,1962-08-28,2017-03-02,4599,-
ARM00087880,GHCN,ghcn_ftp,Gobernador Gregores,356,-48.783,-70.167,,,,,1973-01-02,1997-04-17,2711,-
ARM00087909,GHCN,ghcn_ftp,San Julian,58,-49.307,-67.803,,,,,1973-01-02,2018-02-02,12628,-
FRM00061998,GHCN,ghcn_ftp,Port-Aux-Francais (Iles Kergu,30,-49.35,70.25,,,,,1973-02-18,2018-02-02,8272,-
ARM00087904,GHCN,ghcn_ftp,El Calafate Aero,204,-50.267,-72.05,,,,,2003-03-30,2018-02-02,5071,-
ARM00087903,GHCN,ghcn_ftp,Lago Argentino Arpt,220,-50.333,-72.3,,,,,1962-12-24,2000-12-07,5263,-
NZM00093929,GHCN,ghcn_ftp,Enderby Island Aws,40,-50.483,166.3,,,,,1994-04-12,2017-06-20,506,-
FKM00088870,GHCN,ghcn_ftp,Mount Byron,480,-51.417,-60.567,,,,,2014-05-15,2018-02-02,490,-
AR000087925,GHCN,ghcn_ftp,Rio Gallegos Aero,19,-51.617,-69.283,,,,,1956-02-01,2018-02-02,21282,-
FKM00088881,GHCN,ghcn_ftp,Mount Kent,458,-51.667,-58.1,,,,,2014-05-16,2017-12-22,321,-
FKM00088889,GHCN,ghcn_ftp,Mount Pleasant,74,-51.823,-58.447,,,,,1987-06-01,2018-02-02,7130,-
FKM00088894,GHCN,ghcn_ftp,Mount Alice,361,-52.15,-60.6,,,,,2014-05-16,2017-12-28,419,-
NZ000939450,GHCN,ghcn_ftp,Campbell Island Aws,19,-52.55,169.167,,,,,1941-07-03,2017-06-20,23675,-
CI000085934,GHCN,ghcn_ftp,Punta Arenas,37,-53.0,-70.967,,,,,1963-07-02,2018-02-02,11425,-
ARM00087934,GHCN,ghcn_ftp,Rio Grande,20,-53.778,-67.749,,,,,1973-01-02,2017-03-02,2613,-
